Id_station;Id_omm;Nom_usuel;Latitude;Longitude;Altitude;Date_ouverture;Pack
01014002;;ARBENT;46.278167;5.669000;534;2003-10-01;RADOME
01027003;;BALAN_AERO;45.833000;5.106667;196;2014-05-26;ETENDU
01034004;;BELLEY;45.769333;5.688000;330;2001-09-13;RADOME
01064001;;VERIZIEU;45.777167;5.487167;281;2015-01-01;ETENDU
01071001;;CESSY;46.310333;6.080333;507;2002-05-01;RADOME
01072001;;CEYZERIAT_SAPC;46.204333;5.287667;260;1994-08-01;ETENDU
01089001;07482;AMBERIEU;45.976500;5.329333;250;1934-03-01;RADOME
01143002;;DIVONNE ZA;46.341500;6.139667;467;2003-10-01;ETENDU
01200002;;LA BALME SUR CERDON_SAPC;46.090000;5.482000;596;2004-12-01;ETENDU
01235001;;MARLIEUX;46.038500;5.044333;280;1956-01-01;ETENDU
01247003;;MIJOUX;46.378833;6.019333;1002;1929-01-01;ETENDU
01269001;;NANTUA;46.148167;5.607333;483;1852-01-01;ETENDU
01367002;;SAINT JULIEN SUR REYSSOUZE;46.403167;5.109833;189;1990-02-01;ETENDU
01384003;;ST RAMBERT CG01;45.950333;5.461000;296;2001-12-01;ETENDU
01414001;;SUTRIEU;45.916167;5.624667;878;2002-09-01;RADOME
02037002;;AULNOIS-SS-LAON;49.595667;3.610333;78;1988-10-01;RADOME
02058001;;BEAURIEUX;49.390333;3.732667;56;1949-12-01;ETENDU
02094001;;BLESMES;49.009667;3.462667;222;1985-12-01;RADOME
02110002;;BRAINE;49.351333;3.527000;61;1988-08-01;RADOME
02173002;;CHAUNY;49.633833;3.197833;83;1988-07-01;RADOME
02320001;07061;ST QUENTIN;49.818333;3.206000;98;1933-01-01;RADOME
02321002;;FONTAINE-LES-VV;49.837333;3.877833;186;1987-07-01;RADOME
02346001;;GIZY;49.599833;3.781000;75;1945-01-01;ETENDU
02381001;;HIRSON;49.922000;4.077167;165;1859-01-01;ETENDU
02471001;;MARTIGNY-COURPI;49.485667;3.693167;95;1955-12-01;ETENDU
02585001;;PARCY-ET-TIGNY;49.280167;3.331000;148;1954-08-01;ETENDU
02705001;;NIZY-LE-COMTE;49.566000;4.036500;90;1986-07-01;RADOME
02738001;;TERGNIER;49.663833;3.320667;59;1956-10-01;ETENDU
03036002;;BOURBON_SAPC;46.580000;3.049500;270;1993-05-01;ETENDU
03059001;;CHAREIL-CINTRAT_SAPC;46.275833;3.225667;286;1950-05-01;ETENDU
03060001;07374;VICHY-CHARMEIL;46.166667;3.398667;249;1941-01-01;RADOME
03061001;;CHARMES_SAPC;46.063500;3.233667;330;1995-08-01;ETENDU
03074001;;CHEVAGNES;46.630667;3.549167;228;1946-01-01;ETENDU
03100001;;DIOU;46.541667;3.706667;220;1883-01-01;ETENDU
03106002;;DURDAT-LAREQUILLE;46.251667;2.695667;500;1962-05-01;ETENDU
03108001;;ECHASSIERES_SAPC;46.191167;2.957667;650;1966-11-01;ETENDU
03114001;;FERTE-HAUTERIVE;46.376833;3.331000;226;1957-01-01;ETENDU
03125001;;LA GUILLERMIE;45.984667;3.639833;722;1935-01-01;ETENDU
03130002;;ISLE-ET-BARDAIS;46.663333;2.729667;260;1953-05-01;ETENDU
03155003;;LURCY-LEVIS SA;46.718333;2.947667;225;1991-01-01;RADOME
03162001;;MARIGNY;46.583167;3.195333;240;1927-09-01;ETENDU
03180001;;MONTBEUGNY;46.536333;3.423167;275;1984-01-01;RADOME
03185007;;MONTLUCON;46.355167;2.574667;229;2002-04-01;RADOME
03204001;;PARAY-SOUS-BRIAILLES;46.283500;3.337833;250;1937-05-01;ETENDU
03226001;;SAINT DIDIER_SAPC;46.365333;3.850167;293;1997-03-01;ETENDU
03240001;;ST-LEON;46.402500;3.685833;378;1962-10-01;ETENDU
03248001;;ST-NICOLAS;46.051500;3.805167;1022;1991-03-01;RADOME
03285001;;TORTEZAIS_SAPC;46.451333;2.857000;256;1991-04-01;ETENDU
03310001;;VICHY-VILLE;46.117667;3.439000;255;1858-07-01;ETENDU
03321001;;YZEURE;46.579167;3.353667;242;1867-01-01;ETENDU
04006005;;ALLOS_SAPC;44.242500;6.625333;1400;2010-05-26;ETENDU
04019001;;BARCELONNETTE;44.391167;6.670167;1155;1923-01-01;RADOME
04022001;;BARREME;43.957167;6.372333;743;1966-07-01;ETENDU
04023001;;BAYONS;44.338833;6.174000;893;1997-01-01;ETENDU
04024004;;BEAUJEU ST PIERRE;44.209833;6.385167;960;2023-08-24;ETENDU
04039001;;CASTELLANE;43.849167;6.508000;729;1968-03-01;ETENDU
04041001;;LE CASTELLET;43.938333;5.979500;473;1957-12-01;ETENDU
04049001;07588;ST AUBAN;44.062167;5.989667;458;1954-01-01;RADOME
04068001;;DAUPHIN;43.909833;5.767167;427;2003-08-01;RADOME
04070009;;DIGNE LES BAINS;44.070000;6.186667;554;2003-08-01;RADOME
04096002;;JAUSIERS-ST ANNE;44.413667;6.725167;1240;1985-01-01;ETENDU
04096401;;RESTEFOND-NIVOSE;44.340000;6.800000;2550;1995-09-27;ETENDU
04115001;;MEAILLES_SAPC;44.031167;6.629500;1090;2007-05-10;ETENDU
04126001;;MONTCLAR_SAPC;44.391833;6.333333;1197;2007-06-26;ETENDU
04134002;;LA MOTTE DU CAIRE;44.326667;6.030500;665;1933-08-01;ETENDU
04136001;;LA MURE-ARGENS;43.977000;6.520167;920;2005-06-29;RADOME
04184001;;ST JURS;43.900833;6.200500;867;1962-10-01;ETENDU
04209005;;SISTERON;44.224500;5.916000;500;1998-07-01;ETENDU
04230001;;VALENSOLE;43.839500;6.000833;600;1995-01-01;RADOME
05007003;;ARVIEUX;44.796000;6.728000;1825;2007-07-05;ETENDU
05038001;;CHATEAU-VILLE-VIEILLE;44.759333;6.809000;1355;1928-01-01;ETENDU
05044400;;PARPAILLON-NIVOSE;44.495333;6.636333;2545;2010-08-11;ETENDU
05046001;07591;EMBRUN;44.571167;6.508667;873;1806-01-01;RADOME
05055001;;LA FAURIE;44.566667;5.750167;825;1997-06-01;ETENDU
05061009;;GAP;44.577667;6.079833;885;2003-12-01;ETENDU
05063402;;LA MEIJE-NIVOSE;45.012333;6.265167;3093;1990-03-22;ETENDU
05070003;;LARAGNE MONTEGLIN;44.319167;5.794500;565;1992-12-01;RADOME
05077402;;COL AGNEL-NIVOSE;44.686000;6.972167;2630;1994-08-30;ETENDU
05079402;;GALIBIER-NIVOSE;45.056833;6.377167;2559;2015-09-07;ETENDU
05090002;;MOTTE-MOLINES;44.748167;6.122833;1250;1940-01-01;ETENDU
05096404;;ORCIERES-NIVOSE;44.719000;6.333667;2280;2006-12-21;ETENDU
05120002;;RISTOLAS;44.765667;6.984500;1670;2004-10-01;RADOME
05126001;;ROSANS;44.387500;5.462167;625;1971-12-01;ETENDU
05136002;;ST CREPIN;44.704500;6.600000;906;2006-09-01;RADOME
05139006;;AGNIERES-EN-DEVOLUY;44.696167;5.880833;1244;1928-11-01;ETENDU
05142001;;ST FIRMIN;44.782500;6.035000;935;1927-01-01;ETENDU
05145002;;ST JEAN-ST-NICOLAS;44.670833;6.209833;1210;2003-08-01;RADOME
05158001;;LE SAIX;44.475833;5.815500;801;2003-05-01;ETENDU
05170001;;TALLARD;44.452167;6.033333;593;1964-05-01;RADOME
05179001;;VEYNES;44.536333;5.840667;823;1964-05-01;ETENDU
05181002;;VILLAR D'ARENE;45.030833;6.361667;1665;2002-01-10;RADOME
05182001;;VILLAR LOUBIERE;44.826833;6.146000;1072;1864-01-01;ETENDU
05183001;07593;VILLAR ST PANCRACE;44.880333;6.640333;1310;2003-08-01;RADOME
06004002;07688;ANTIBES-GAROUPE;43.564667;7.133000;75;1920-01-01;ETENDU
06004004;;ANTIBES-GOLF;43.579667;7.091167;13;1964-01-01;ETENDU
06004009;;ANTIBES_SAPC;43.599167;7.111167;32;1988-07-01;ETENDU
06005001;;ASCROS;43.922000;7.013667;1173;1987-08-01;RADOME
06016001;;BEUIL-OBS;44.089833;6.988000;1464;1917-03-01;ETENDU
06023004;;BREIL SUR ROYA;43.940167;7.513667;305;1987-08-01;ETENDU
06029001;07684;CANNES;43.556500;6.950500;2;1949-03-01;RADOME
06033002;;CARROS_SAPC;43.786333;7.209500;78;1991-03-01;ETENDU
06037002;;CAUSSOLS;43.752333;6.923167;1268;1987-08-01;ETENDU
06038001;;CHATEAUNEUF GRASSE;43.673667;6.991000;388;2012-09-17;ETENDU
06050002;;COURSEGOULES_SAPC;43.792000;7.048500;985;1989-08-01;ETENDU
06059003;;EZE;43.738833;7.365833;704;1991-06-01;ETENDU
06071001;;GUILLAUMES-OBS;44.090667;6.852333;788;1907-03-01;ETENDU
06073005;;ISOLA 2000;44.189500;7.149000;1912;1972-01-01;ETENDU
06074005;;LANTOSQUE_SAPC;43.972000;7.307000;550;2006-10-25;ETENDU
06075007;;LEVENS;43.846333;7.210000;691;2008-05-16;ETENDU
06077006;;PEIRA CAVA;43.929167;7.363333;1443;1989-08-01;RADOME
06079002;;MANDELIEU LA NAPOULE_SAPC;43.523667;6.898667;104;1988-07-01;ETENDU
06081001;;LE MAS;43.813667;6.809333;1525;2006-04-02;RADOME
06083005;;MENTON;43.785833;7.488667;216;1988-08-01;ETENDU
06086001;;MOULINET;43.942000;7.414667;817;1950-03-01;ETENDU
06088001;07690;NICE;43.648833;7.209000;2;1942-07-01;RADOME
06088007;;NICE-RIMIEZ;43.738667;7.279167;238;1949-12-01;ETENDU
06090002;;PEGOMAS;43.602667;6.936667;109;2010-03-15;ETENDU
06091003;;PEILLE;43.775167;7.428333;1106;1987-08-01;RADOME
06094002;;PEONE;44.099667;6.930833;1784;2002-11-01;RADOME
06099004;;PUGET THENIERS_SAPC;43.956833;6.892333;449;1991-05-01;ETENDU
06102001;;RIMPLAS_SAPC;44.067167;7.133500;1130;2006-10-25;ETENDU
06103002;;BERTHEMONT-LES-BAINS_SAPC;44.044333;7.300833;938;2023-01-24;ETENDU
06118002;;ST CEZAIRE SUR SIAGNE;43.678667;6.809000;694;2005-11-01;RADOME
06120004;;ST ETIENNE DE TINEE_SAPC;44.257667;6.921167;1150;2006-11-27;ETENDU
06125001;;ST MARTIN D'ENTRAUNES_SAPC;44.154667;6.747000;1642;2007-05-07;ETENDU
06136005;;SOSPEL;43.862833;7.433667;843;2004-11-01;RADOME
06152002;;VALBONNE-SOPHIA;43.623167;7.028500;238;1987-07-01;ETENDU
06153400;;MILLEFONTS-NIVOSE;44.118333;7.192000;2430;2007-09-26;ETENDU
06163001;;TENDE-OBS;44.086667;7.595000;792;1952-09-01;ETENDU
06163007;;TENDE_SAPC;44.043167;7.586000;636;1989-07-01;ETENDU
07005001;;ALBA LA ROMAINE;44.539833;4.582500;223;1948-09-01;ETENDU
07010001;07472;ANNONAY;45.246167;4.670500;336;1973-07-01;ETENDU
07011002;;ANTRAIGUES;44.719167;4.352167;428;1953-01-01;ETENDU
07019005;;AUBENAS SA;44.601667;4.409833;176;1969-07-01;ETENDU
07025001;;BARNAS RAD;44.666000;4.159833;480;1990-01-01;RADOME
07032002;;BERZEME RAD;44.628333;4.566333;650;1988-05-01;RADOME
07033001;;BESSAS;44.340000;4.298667;251;1933-11-01;ETENDU
07064001;;CHEYLARD SA;44.914833;4.437500;418;1900-01-01;ETENDU
07066001;;CHOMERAC SA_RCE;44.699500;4.648333;216;1970-07-01;ETENDU
07068001;;COLOMBIER JEUNE RAD;45.015500;4.671167;566;1972-10-01;RADOME
07075001;;CROS GEORAND;44.780167;4.099667;1021;1952-01-01;ETENDU
07096001;;GLUIRAS RAD;44.839333;4.524000;760;2004-12-01;RADOME
07099001;;GRAS;44.429000;4.565500;341;1984-01-01;ETENDU
07101001;;GROSPIERRES;44.411333;4.300833;127;1978-08-01;ETENDU
07105001;;ISSANLAS;44.773167;3.981667;1215;1950-01-01;ETENDU
07105003;;ISSANLAS_SAPC;44.755500;3.975333;1264;2004-03-01;ETENDU
07117002;;LABLACHERE;44.480833;4.208333;295;1958-03-01;ETENDU
07128001;;LALOUVESC;45.117833;4.535000;1090;1956-07-01;ETENDU
07131001;07570;LANAS SYN;44.537167;4.368167;265;1990-11-01;RADOME
07153001;;MAYRES;44.667167;4.113000;579;1900-01-01;ETENDU
07154005;;MAZAN ABBAYE RAD;44.733833;4.083833;1240;2003-05-01;RADOME
07159001;;MIRABEL SA;44.581500;4.497333;275;1929-01-01;ETENDU
07161001;;MONTPEZAT SA;44.715667;4.207000;602;1900-01-01;ETENDU
07168001;;ORGNAC AVEN;44.288333;4.421667;230;1970-07-01;ETENDU
07172002;;PEAUGRES RAD;45.286167;4.705833;480;2003-05-01;RADOME
07187001;;CROIX MILLET;44.606333;4.241333;779;2009-07-10;RADOME
07202002;;SABLIERES OARA;44.533000;4.072500;540;1991-05-01;ETENDU
07204008;;ST-AGREVE RAD;44.997833;4.368000;1014;2005-09-01;RADOME
07232001;;ST-ETIENNE LUGDARES;44.651333;3.948500;1022;1950-07-01;ETENDU
07240001;;ST-GEORGES BAIN;44.860333;4.832500;112;1950-07-01;ETENDU
07261001;;ST-LAURENT PAPE;44.817833;4.746833;112;1950-01-01;ETENDU
07279001;;ST-MONTAN;44.441833;4.636333;130;1944-05-01;ETENDU
07315004;;LA SOUCHE;44.628500;4.123667;924;1997-01-01;ETENDU
07334004;;LES VANS-SA;44.415500;4.150833;140;2010-09-09;ETENDU
07338001;;VERNOUX;44.899500;4.652333;561;1892-01-01;ETENDU
07347001;;VOCANCE;45.201167;4.554333;529;1918-01-01;ETENDU
08046001;;BANOGNE-RECOUVRANCE;49.571667;4.129167;130;1970-07-01;ETENDU
08089003;;BUZANCY_SAPC;49.427333;4.964500;199;2007-01-01;ETENDU
08105005;07075;CHARLEVILLE-MEZ;49.782833;4.643167;145;1990-01-01;RADOME
08116001;;LE CHESNE;49.511667;4.767500;168;1873-05-01;ETENDU
08145001;;DOUZY;49.658000;5.039833;153;2002-05-29;RADOME
08207001;;HAM-SUR-MEUSE;50.116000;4.779500;109;1939-01-01;ETENDU
08239001;;JUNIVILLE;49.397333;4.371667;90;1900-01-01;ETENDU
08244001;;LAMETZ_SAPC;49.536667;4.689667;165;2017-08-16;ETENDU
08248002;;LAUNOIS-SUR-VENCE_SAPC;49.671833;4.534667;218;2009-03-04;ETENDU
08254002;;LIART_SAPC;49.765500;4.340333;240;2016-09-08;ETENDU
08255001;;LINAY;49.616833;5.216833;177;1983-01-01;ETENDU
08296002;;MONTCHEUTIN_SAPC;49.287333;4.809667;142;2007-01-01;ETENDU
08353001;;RANCENNES;50.118833;4.813167;162;2014-09-18;RADOME
08367002;;ROCROI;49.918667;4.530000;382;1999-04-01;RADOME
08401001;;SAULCES-CHAMPENOISES;49.423833;4.492500;147;2004-03-18;RADOME
08419001;;SIGNY-L'ABBAYE;49.686000;4.418833;180;1951-01-01;ETENDU
08420002;;SIGNY-LE-PETIT_SAPC;49.913500;4.288167;309;2007-07-25;ETENDU
09023002;;ASCOU LAVAIL;42.723833;1.895167;1100;1954-01-01;ETENDU
09024004;;ASTON;42.724167;1.691000;1781;2002-06-01;RADOME
09027001;;AUGIREIN;42.930167;0.920000;655;1989-08-01;ETENDU
09047001;;BELESTA;42.903833;1.936667;490;1928-01-01;ETENDU
09094001;;CERIZOLS;43.126000;1.063000;374;1980-04-01;ETENDU
09099001;;COS;42.970167;1.564500;519;2003-10-01;RADOME
09161003;;LERAN;42.990333;1.919167;391;2002-05-01;RADOME
09181003;;LE MAS D AZIL;43.073500;1.357667;293;1971-05-01;ETENDU
09199002;;MONTAUT;43.192167;1.643500;295;2002-05-01;RADOME
09225005;;PAMIERS VILLE;43.118833;1.607000;283;2008-12-01;ETENDU
09285400;;PORT D'AULA-NIVOSE;42.770000;1.114333;2140;1995-10-17;ETENDU
09289001;07627;ST GIRONS;43.005333;1.106833;414;1949-01-01;RADOME
09301001;;SOULAN;42.914667;1.234333;638;1975-10-01;ETENDU
09328001;;VERDUN;42.791667;1.690000;550;1928-01-01;ETENDU
10002001;;AILLEVILLE_SAPC;48.254167;4.685667;195;1991-01-01;ETENDU
10021001;;AVANT-LES-RAMERUPT;48.451333;4.283667;118;1959-03-01;ETENDU
10030001;07168;TROYES-BARBEREY;48.324667;4.020000;112;1975-05-01;RADOME
10042001;;BERULLE;48.179000;3.663333;146;1913-01-01;ETENDU
10057001;;BOUY-SUR-ORVIN;48.439833;3.504833;102;1926-01-01;RADOME
10070001;;CELLES-SUR-OURCE;48.067500;4.411333;275;2004-03-25;RADOME
10099002;;CHESSY-LES-PRES_SAPC;48.025500;3.915000;119;1971-11-01;ETENDU
10119001;;CUNFIN_SAPC;48.036500;4.678500;315;1980-04-01;ETENDU
10130001;;DOSNON;48.609167;4.224667;115;1949-11-01;ETENDU
10166002;;GRANDES-CHAPELL;48.468167;4.016833;111;1971-10-01;ETENDU
10228002;;MATHAUX-ETAPE;48.353167;4.472333;145;1981-01-01;RADOME
10238001;;MESNIL-ST-PERE;48.244833;4.322167;142;1972-01-01;ETENDU
10241001;;METZ-ROBERT_SAPC;48.074500;4.101167;140;2015-10-28;ETENDU
10261001;;MUSSY-SUR-SEINE;47.983833;4.495833;193;1971-10-01;ETENDU
10323001;;ROMILLY;48.503333;3.749500;77;1881-11-01;ETENDU
10350001;;ST-MARDS;48.169833;3.789000;227;1958-01-01;RADOME
10372001;;SOULAINES;48.399333;4.671333;138;1991-01-01;ETENDU
10401001;;VENDEUVRE-SUR-B;48.233000;4.463000;180;1891-01-01;ETENDU
10419001;;VILLEMOYENNE;48.178500;4.233833;134;1972-07-01;ETENDU
11004001;;ALAIGNE;43.112500;2.098333;293;1971-01-01;ETENDU
11012001;;ARGELIERS;43.308167;2.911667;31;1945-01-01;ETENDU
11015001;;ARQUES;42.951833;2.374833;350;1872-01-01;ETENDU
11016003;;ARQUETTES-EN-VAL;43.100833;2.503333;240;1991-05-01;ETENDU
11028001;;BELCAIRE;42.819500;1.968167;980;1962-07-01;ETENDU
11069001;07635;CARCASSONNE;43.215333;2.295500;128;1948-01-01;RADOME
11076001;;CASTELNAUDARY;43.305333;1.949167;160;1946-04-01;ETENDU
11081003;;CAUNES-MINERVOIS;43.334333;2.481000;371;1988-04-01;ETENDU
11124003;;DURBAN-CORBIERES;42.993167;2.819167;120;1988-09-01;ETENDU
11136001;;FANJEAUX_SAPC;43.202000;2.070000;182;2006-10-25;ETENDU
11144001;;FITOU;42.894667;2.995833;9;1939-01-01;ETENDU
11159002;;RIBOUISSE;43.182833;1.895833;302;1965-01-01;ETENDU
11168001;;GRANES;42.909167;2.250500;420;1991-10-01;RADOME
11181002;;LABECEDE LAURAGAIS_SAPC;43.389500;2.022167;408;2007-05-24;ETENDU
11185001;;LAGRASSE;43.091500;2.621833;130;1960-11-01;ETENDU
11202001;07666;LEUCATE;42.917333;3.059667;42;1995-03-01;RADOME
11203004;;LEZIGNAN-CORBIERES;43.173000;2.728833;60;1990-08-01;RADOME
11206003;;LIMOUX;43.046000;2.201167;230;1937-01-01;ETENDU
11221004;;LES MARTYS;43.408500;2.292333;760;1993-09-01;RADOME
11253001;;MONTOLIEU;43.312667;2.240500;280;1964-11-01;ETENDU
11260002;;MOUTHOUMET;42.959500;2.529000;538;1989-08-01;RADOME
11262005;;NARBONNE;43.150333;2.956000;110;1988-05-01;RADOME
11266001;;PORT-LA-NOUVELLE;43.014500;3.052500;0;1856-01-01;ETENDU
11412001;;VILLARDEBELLE_SAPC;43.014833;2.400500;593;1969-06-01;ETENDU
12005001;;ALPUECH;44.756000;2.868167;1107;2013-11-14;RADOME
12011001;;ARVIEU;44.167667;2.618833;733;1979-01-01;ETENDU
12014001;;AURELLE-VERLAC_SAPC;44.533500;3.007667;1076;1965-08-01;ETENDU
12039001;;BRUSQUE_SAPC;43.749500;2.938667;858;2006-11-20;ETENDU
12050001;;CANET-DE-SALARS_SAPC;44.233500;2.737167;860;2008-09-15;ETENDU
12063003;;MILLAU-LARZAC_SAPC;43.987000;3.181833;794;1998-12-01;ETENDU
12068001;;COLOMBIES;44.357833;2.317167;647;1981-01-01;ETENDU
12077002;;CORNUS;43.922333;3.192167;718;2002-05-01;RADOME
12092001;;DURENQUE_SAPC;44.111833;2.644500;812;2007-11-13;ETENDU
12094002;;ENTRAYGUES SUR;44.635833;2.559667;264;1979-12-01;ETENDU
12096001;;ESPALION;44.509500;2.768667;359;1884-01-01;ETENDU
12145001;07558;MILLAU;44.118500;3.019500;712;1964-04-01;RADOME
12150001;;MONTEILS;44.265667;1.991667;268;1955-03-01;ETENDU
12154003;;MONTLAUR;43.891667;2.836333;374;2002-05-01;RADOME
12179001;;PEUX-ET-COUFFOULEUX_SAPC;43.761833;2.867167;830;2006-11-20;ETENDU
12189001;;PRADINAS_SAPC;44.242167;2.255833;564;2012-07-16;ETENDU
12216001;;ST-COME-D'OLT;44.514667;2.827833;380;2002-06-01;RADOME
12224001;;ST-GENIEZ-D'OLT;44.463667;2.967667;420;1955-12-01;ETENDU
12253001;;SALLES CURAN;44.151833;2.866167;959;1945-01-01;ETENDU
12254001;07552;RODEZ-AVEYRON;44.410333;2.482500;578;1970-11-01;RADOME
12266002;;SEGUR;44.289500;2.820333;879;2016-10-17;RADOME
12298001;;VILLECOMTAL;44.530667;2.572000;318;1956-03-01;ETENDU
12300004;;VILLEFRANCHE-DE-ROUERGUE;44.371833;2.023667;330;1988-07-01;RADOME
13001009;07654;AIX EN PROVENCE;43.529500;5.424500;173;1955-07-01;RADOME
13004003;;ARLES;43.510000;4.693833;1;1962-11-01;RADOME
13005003;;AUBAGNE;43.307333;5.601167;130;1988-04-01;ETENDU
13022003;;CASSIS;43.222167;5.503167;212;1989-11-01;RADOME
13028001;07656;BEC DE L AIGLE;43.174667;5.574167;316;1947-01-01;ETENDU
13030001;;CUGES-LES-PINS;43.274000;5.700167;184;1890-12-01;ETENDU
13031002;;LA DESTROUSSE_SAPC;43.386667;5.601000;201;2007-07-13;ETENDU
13036003;;EYRAGUES;43.847167;4.834833;17;1997-04-01;ETENDU
13047001;07647;ISTRES;43.522667;4.927500;23;1920-01-01;RADOME
13054001;07650;MARIGNANE;43.437667;5.216000;9;1920-09-01;RADOME
13055001;;MARSEILLE-OBS;43.303500;5.390000;75;1867-02-01;ETENDU
13055029;;MARSEILLE;43.310667;5.479167;192;2014-11-01;RADOME
13056002;07653;CAP COURONNE;43.331667;5.053333;27;1961-04-01;ETENDU
13062002;;MIMET;43.418500;5.499667;416;1990-01-01;ETENDU
13074003;;PEYROLLES EN PROVENCE;43.656833;5.606667;217;2005-06-27;RADOME
13091002;;ST CANNAT;43.604500;5.317667;249;2011-06-14;ETENDU
13092001;;ST CHAMAS;43.549500;5.039500;10;1873-07-01;ETENDU
13103001;07648;SALON DE PROVENCE;43.612833;5.108000;58;1938-03-01;RADOME
13108004;;TARASCON;43.829833;4.640167;15;1989-07-01;RADOME
13110003;;TRETS;43.445333;5.698667;264;1988-01-01;ETENDU
13111002;;VAUVENARGUES;43.551000;5.680000;565;1989-08-01;ETENDU
14047002;;BAYEUX;49.274833;-0.712333;60;2013-09-05;ETENDU
14066001;;BERNIERES;49.334000;-0.430667;2;2001-08-01;RADOME
14096001;;BREMOY;48.991167;-0.780833;240;1873-11-01;ETENDU
14137001;07027;CAEN-CARPIQUET;49.180000;-0.456167;67;1944-10-01;RADOME
14216001;;DAMBLAINVILLE;48.928000;-0.148667;155;1997-01-01;RADOME
14229001;;DOZULE;49.231667;-0.047500;29;1967-06-01;ETENDU
14239001;;ENGLESQUEVILLE;49.387500;-0.956667;38;1958-02-01;ETENDU
14296001;;LEGAST_SAPC;48.794667;-1.037167;336;1997-01-01;ETENDU
14357002;;LASSY_SAPC;48.926500;-0.692500;223;2008-12-01;ETENDU
14366002;;LISIEUX_SAPC;49.165000;0.227000;62;1970-07-01;ETENDU
14372001;;LIVRY;49.101500;-0.765167;184;1995-08-01;RADOME
14446001;;MONTIGNY;49.045833;-0.530167;151;1970-07-01;ETENDU
14501002;;PIERREFITTE CIN_SAPC;48.891000;-0.385833;185;1997-04-01;ETENDU
14515001;07029;PORT EN BESSIN;49.349167;-0.772667;68;1984-01-01;ETENDU
14578001;07031;ST GATIEN DES B;49.364500;0.167000;139;1931-08-01;RADOME
14624001;;L OUDON LIEURY_SAPC;48.989500;-0.009167;52;1963-07-01;ETENDU
14634001;;SAINT MICHEL DE;49.006833;0.129500;140;1983-12-01;ETENDU
14659001;;ST SYLVAIN_SAPC;49.060000;-0.234333;62;1972-12-01;ETENDU
14762004;;VIRE HIPPODROME;48.850833;-0.899000;100;2003-12-01;RADOME
15001003;;ALLANCHE;45.232000;2.937667;1010;1999-01-01;ETENDU
15014001;;AURILLAC - VILL;44.935833;2.438333;707;1961-07-01;ETENDU
15014004;07549;AURILLAC;44.891500;2.419167;632;1945-08-09;RADOME
15025001;;PRAT DE BOUC;45.052500;2.792000;1405;1996-12-01;RADOME
15050001;07862;LE CLAUX;45.172500;2.710500;1033;1951-07-01;ETENDU
15053001;;COLTINES;45.074667;2.990667;979;1994-09-01;RADOME
15060002;;DEUX-VERGES;44.801500;3.012667;1080;2002-06-01;RADOME
15068001;;FAVEROLLES;44.943500;3.149000;905;1954-07-01;ETENDU
15085001;;LABROUSSE;44.855333;2.540667;800;1950-05-01;ETENDU
15101004;;LE LIORAN_SAPC;45.082167;2.751000;1238;1977-11-01;ETENDU
15114002;;MARCENAT;45.302667;2.833000;1075;1990-01-01;RADOME
15118002;;MARMANHAC;45.002833;2.474500;644;1968-05-01;ETENDU
15119001;;MASSIAC;45.263333;3.197833;533;1858-01-01;ETENDU
15120005;;MAURIAC;45.222167;2.293167;674;1995-06-01;RADOME
15122002;;MAURS;44.734167;2.166000;480;1992-02-01;RADOME
15138001;;MURAT;45.109500;2.862167;904;1957-01-01;ETENDU
15162003;;RIOM-MONTAGNES;45.280167;2.664667;837;1989-10-01;ETENDU
15187006;;ST FLOUR;45.024333;3.067333;909;1988-01-01;ETENDU
15191001;;ST ILLIDE;45.064000;2.303833;635;1953-05-01;ETENDU
15196001;;ST MAMET;44.858833;2.310667;740;1955-09-01;ETENDU
15207002;;ST- PONCY_SAPC;45.178333;3.174167;805;2007-01-01;ETENDU
15226001;;SENEZERGUES;44.704000;2.428167;530;1964-10-01;ETENDU
15235002;;LES TERNES;44.992833;3.001833;1007;1947-01-01;ETENDU
15258004;;VIC SUR CERE;44.965833;2.612167;657;1988-01-01;ETENDU
16028001;;BARBEZIEUX;45.481000;-0.148667;72;1877-01-01;ETENDU
16078001;07420;ANGOULEME - BRIE - CHAMPNIERS;45.728000;0.220667;124;2009-03-17;ETENDU
16089001;07412;COGNAC;45.665000;-0.315833;30;1944-01-01;RADOME
16113001;;LA COURONNE;45.627833;0.099833;58;1976-01-01;RADOME
16193001;;LOUZAC ST ANDRE;45.735833;-0.381833;51;1985-06-01;ETENDU
16225001;;MONTEMBOEUF;45.787167;0.543000;247;1990-12-01;RADOME
16256001;;PASSIRAC;45.334000;-0.078667;114;1979-01-01;ETENDU
16279001;;RIOUX MARTIN;45.262000;0.003333;81;1990-03-01;RADOME
16363001;;SAULGOND_SAPC;45.956333;0.781667;228;1993-01-01;ETENDU
16366001;;SEGONZAC_SAPC;45.614500;-0.223500;62;1970-06-01;ETENDU
16390001;;TUSSON;45.949000;0.062167;88;1986-01-01;RADOME
16403001;;LE VIEUX CERIER_SAPC;45.967500;0.442000;162;1990-02-01;ETENDU
17093002;;CHATEAU D'OLERON;45.862167;-1.204333;3;1980-01-01;ETENDU
17111001;;CLION;45.476833;-0.510333;35;1957-01-01;ETENDU
17218001;;MARANS;46.316333;-1.012167;2;1858-01-01;ETENDU
17224001;;MATHA;45.858667;-0.319667;38;1949-01-01;ETENDU
17243002;;MONTLIEU_SAPC;45.220167;-0.291833;89;1959-01-01;ETENDU
17248001;;MORTAGNE-SUR-GIRONDE_SAPC;45.477667;-0.789833;37;2016-07-28;ETENDU
17268002;;NUAILLE SUR BOUTONNE;46.019833;-0.406667;36;1933-01-01;RADOME
17300009;07316;LA ROCHELLE-ILE DE RE;46.178000;-1.193167;20;2000-01-01;RADOME
17306004;;ROYAN-MEDIS;45.633000;-0.974667;12;1991-11-01;RADOME
17308001;07317;ST AGNANT;45.888000;-0.984667;18;1992-01-01;ETENDU
17318001;07311;SAINT-CLEMENT DES BALEINES;46.243000;-1.561667;10;1882-01-01;ETENDU
17323001;07314;CHASSIRON;46.046833;-1.411667;11;1879-06-01;RADOME
17339002;;ST GERMAIN DE LUSIGNAN;45.458333;-0.409667;71;1969-01-01;RADOME
17353001;;ST-LAURENT PREE-INRA;45.988333;-1.027000;3;1873-10-01;ETENDU
17415003;;SAINTES;45.761167;-0.652000;38;1916-01-01;RADOME
17477001;;VILLIERS_SAPC;45.987500;-0.152000;106;1962-12-01;ETENDU
18003003;;LES AIX-D'ANG.;47.209667;2.552333;195;1990-08-01;ETENDU
18015003;;AUBIGNY-SUR-NERE;47.499500;2.427333;176;1991-05-01;RADOME
18033001;07255;BOURGES;47.059167;2.359833;161;1945-03-01;RADOME
18036001;;BRINAY;47.166667;2.081000;131;1986-04-01;ETENDU
18037001;;BRINON;47.564500;2.262333;133;1859-01-01;ETENDU
18047001;;CHAPELLE-D'ANG_SAPC;47.373833;2.426667;190;1854-09-01;ETENDU
18057003;;CHATEAUMEILLANT;46.564000;2.217500;243;1901-04-01;ETENDU
18087001;;DUN;46.878333;2.566167;160;1883-01-01;ETENDU
18089001;;EPINEUIL;46.563333;2.519833;228;1859-01-01;ETENDU
18092001;07257;AVORD;47.052167;2.642167;175;1921-01-01;RADOME
18109002;;HENRICHEMONT;47.285833;2.579167;377;1987-01-01;ETENDU
18125004;;LERE;47.457833;2.893167;139;1997-06-01;RADOME
18172003;;ORVAL RAD;46.731000;2.467333;165;2004-01-13;RADOME
18175003;;OUROUER;46.925333;2.803333;221;1991-11-01;RADOME
18187004;;PREVERANGES;46.425333;2.236500;462;1997-05-01;RADOME
18207003;;ST-FLORENT/CHER;46.989333;2.248667;146;1991-03-01;ETENDU
18223003;;ST-MARTIN-D'A.;47.200667;2.416833;172;1947-01-01;ETENDU
18231001;;ST-PIERRE;46.729000;2.631667;174;1984-12-01;ETENDU
18242001;;SANCOINS;46.831333;2.926500;203;1883-01-01;ETENDU
18279001;;VIERZON - VEVES;47.219500;2.014167;98;1859-01-01;ETENDU
19010001;;ARGENTAT;45.101333;1.937500;190;1867-05-01;RADOME
19016001;;BAR;45.344500;1.823833;269;1940-01-01;ETENDU
19031008;07438;BRIVE;45.146667;1.473333;115;1987-09-01;RADOME
19033001;;BUGEAT;45.602667;1.930333;694;1944-03-01;ETENDU
19034001;;CAMPS;44.983667;1.988333;519;1952-06-01;ETENDU
19073006;;EGLETONS;45.398833;2.059167;610;1997-07-01;RADOME
19121002;;LUBERSAC;45.410333;1.411167;390;1987-04-01;ETENDU
19125001;;MARCILLAC;45.283500;2.039833;598;1951-01-01;ETENDU
19136002;;MEYMAC;45.534333;2.154333;670;1959-02-01;ETENDU
19139001;;MILLEVACHES;45.642667;2.095500;915;1952-08-01;ETENDU
19147001;07439;BRIVE-SOUILLAC;45.036333;1.491667;295;2010-06-15;RADOME
19164001;;PEYRELEVADE;45.701000;2.058667;827;1965-08-01;RADOME
19201001;;USSEL-THALAMY;45.537333;2.420000;740;2014-08-01;RADOME
19237001;;ST-PRIVAT;45.139000;2.096000;585;1954-11-01;ETENDU
19264001;;SOURSAC;45.249000;2.212833;528;1951-06-01;ETENDU
19272001;;TULLE;45.242500;1.740333;235;1867-05-01;ETENDU
19275001;;USSEL-LAMARTINE;45.558833;2.321333;654;1937-11-01;ETENDU
19276006;;UZERCHE;45.396333;1.568167;422;1996-07-01;RADOME
19288004;;VOUTEZAC;45.279833;1.416000;124;1940-01-01;ETENDU
20004002;07761;AJACCIO;41.918000;8.792667;5;1944-03-01;RADOME
20004003;07752;AJACCIO-PARATA;41.908333;8.618167;124;1955-09-01;ETENDU
20004014;;AJACCIO-MILELLI_SAPC;41.938500;8.720833;86;2003-09-01;ETENDU
20007402;;SPONDE-NIVOSE;42.324500;8.882667;1981;1985-12-12;ETENDU
20023005;;ASCO_SAPC;42.403833;8.922667;1400;2015-07-02;ETENDU
20029003;;BARBAGGIO_SAPC;42.679833;9.389333;572;2021-12-22;ETENDU
20033015;;BASTIA_SAPC;42.704333;9.444833;26;2016-05-13;ETENDU
20040001;07796;BOCOGNANO-GARE;42.080167;9.052500;660;1965-01-01;ETENDU
20040004;;BOCOGNANO;42.104167;9.103333;1019;2009-04-10;ETENDU
20041001;07770;CAP PERTUSATO;41.374833;9.178333;107;1882-01-01;RADOME
20046002;;CAGNANO;42.886667;9.439500;278;2018-06-11;ETENDU
20047006;;CALACUCCIA;42.331500;9.021500;811;2016-06-01;ETENDU
20050001;07754;CALVI;42.529500;8.791500;57;1960-01-01;RADOME
20054002;;CAMPILE_SAPC;42.494667;9.353000;499;2013-06-28;ETENDU
20083001;;CASTIRLA;42.380167;9.134167;376;1970-08-01;ETENDU
20092001;;CONCA;41.717000;9.348500;253;1999-03-01;ETENDU
20093002;07753;ILE ROUSSE;42.633167;8.922667;142;1988-08-01;RADOME
20096008;;CORTE;42.288500;9.193167;350;2015-10-01;RADOME
20096009;;RESTONICA_SAPC;42.229667;9.031333;1372;2022-09-27;ETENDU
20107001;07785;CAP CORSE;43.003833;9.359500;72;1882-01-01;RADOME
20108002;;EVISA-ONF;42.263333;8.838667;1030;1977-01-01;ETENDU
20114002;07780;FIGARI;41.505167;9.103667;20;1979-08-01;RADOME
20126001;;GIUNCAGGIO_SAPC;42.216500;9.369333;685;2018-04-20;ETENDU
20135002;;ISOLACCIO DI FIUMORBO;41.992333;9.305000;198;2006-09-01;ETENDU
20142001;;LEVIE;41.703500;9.125833;571;1967-09-01;ETENDU
20148001;07790;BASTIA;42.540667;9.485167;10;1944-05-01;RADOME
20154001;;MARIGNANA;42.188833;8.655333;515;2009-02-09;ETENDU
20160001;;MOCA-CROCE;41.761667;9.016500;951;2019-02-18;RADOME
20169007;;PONTE-LECCIA;42.472667;9.199833;240;2013-06-06;ETENDU
20185003;;OLETTA;42.632333;9.320500;75;2006-01-18;RADOME
20190002;;OLMI-CAPPELLA;42.529500;9.016500;844;2011-04-04;ETENDU
20209003;;PERI_SAPC;42.003167;8.905667;433;2016-11-07;ETENDU
20211001;;PETRETO BICCHISANO;41.785167;8.979167;450;1952-03-01;ETENDU
20223001;;PIETRALBA;42.541000;9.172000;510;1991-07-01;ETENDU
20232002;;PILA-CANALE;41.814500;8.903667;407;1992-04-01;ETENDU
20247001;07768;LA CHIAPPA;41.594833;9.363167;57;1928-07-01;ETENDU
20249003;;PROPRIANO;41.678167;8.915000;34;2019-10-14;ETENDU
20254006;;QUENZA;41.777667;9.142833;932;2009-04-07;ETENDU
20258001;;RENNO;42.190167;8.807167;755;1993-06-01;RADOME
20264002;;RUSIO_SAPC;42.364167;9.264500;860;2016-04-18;ETENDU
20268001;;SAMPOLO;41.943000;9.123000;837;1989-09-01;RADOME
20270001;;SARI D'ORCINO;42.078500;8.802333;407;1988-11-01;ETENDU
20272001;;SARTENE-CIMETIERE;41.620167;8.962167;272;1959-05-01;ETENDU
20272004;;SARTENE;41.652333;8.979333;62;1996-09-01;ETENDU
20273001;;SCATA;42.429333;9.412167;185;2006-09-01;ETENDU
20281001;07791;CAP SAGRO;42.798333;9.488667;111;1979-01-01;ETENDU
20303002;07775;ALISTRO;42.259667;9.541500;65;1990-07-01;RADOME
20312001;;SANTA MARIA SICHE;41.879167;8.989167;541;1952-03-01;ETENDU
20314006;;SANTO PIETRO DI TENDA;42.635833;9.200667;484;2017-12-14;RADOME
20326001;;TOLLA_SAPC;41.963500;8.959167;698;2016-11-21;ETENDU
20341400;;MANICCIA-NIVOSE;42.210000;9.050000;2360;2000-10-24;ETENDU
20342001;07765;SOLENZARA;41.921833;9.400833;12;1960-08-01;RADOME
20354008;;VIVARIO_SAPC;42.152667;9.149167;773;2017-09-19;ETENDU
21056001;;BEIRE LE CHATEL;47.413833;5.208333;250;1945-09-01;ETENDU
21065001;;BESSEY;47.086000;4.743167;593;2002-05-01;RADOME
21116002;;BURE LES TEMPLIERS_SAPC;47.719500;4.948167;461;2007-12-05;ETENDU
21131001;;PAGNY-LE-CHATEAU;47.043167;5.190667;182;1992-04-01;RADOME
21154001;07276;CHATILLON/SEINE;47.849333;4.581333;262;1946-01-01;RADOME
21231001;;DIJON;47.320667;5.019333;241;1830-07-01;ETENDU
21310001;;GROSBOIS-EN-MONTAGNE;47.319333;4.596333;376;1850-01-01;ETENDU
21326001;;JOURS LES BAIGNEUX_SAPC;47.636000;4.596333;392;2015-06-30;ETENDU
21386001;;MARIGNY LE CAHOUET;47.447500;4.433500;335;1864-01-01;ETENDU
21395001;;MASSINGY-LES-VITTEAUX_SAPC;47.388667;4.586333;509;2018-08-17;ETENDU
21425001;;MONTBARD_SAPC;47.628500;4.330500;209;1831-01-01;ETENDU
21454001;;NICEY;47.860333;4.315333;209;1853-01-01;ETENDU
21473001;07280;DIJON-LONGVIC;47.267833;5.088333;219;1921-01-01;RADOME
21501003;;POUILLY EN AUX_SAPC;47.251333;4.561000;412;1991-01-01;ETENDU
21503001;;POUILLY SUR VINGEANNE;47.542667;5.417667;239;1880-01-01;ETENDU
21519001;;RECEY SUR OURCE;47.782167;4.864167;326;1858-01-01;ETENDU
21527001;;LA ROCHEPOT;46.952500;4.674000;417;1938-01-01;ETENDU
21561003;;ST-MARTIN-DU-M;47.400500;4.781167;578;1992-09-01;RADOME
21564001;;ST NIC. CITEAUX;47.122167;5.072167;203;1947-01-01;ETENDU
21567001;;ARNAY_SAPC;47.124833;4.498667;396;1996-05-01;ETENDU
21584001;;SAULIEU;47.264167;4.215000;586;1850-01-01;RADOME
21603001;;SEMUR EN AUXOIS_SAPC;47.482000;4.340000;314;1978-03-01;ETENDU
21633002;;THOREY SOUS CHARNY_SAPC;47.319167;4.439500;421;2016-10-12;ETENDU
21638002;;TIL-CHATEL_SAPC;47.544833;5.207500;283;1993-11-01;ETENDU
22005003;;BELLE-ISLE-EN-TERRE;48.550000;-3.387500;158;2016-07-26;RADOME
22016001;07121;ILE-DE-BREHAT;48.855167;-3.004500;25;1850-01-01;ETENDU
22092001;;KERPERT;48.404000;-3.147667;281;1987-04-01;RADOME
22108001;;LANLEFF;48.691167;-3.040500;78;1987-05-01;ETENDU
22113006;07118;LANNION_AERO;48.755333;-3.468667;85;1993-11-01;RADOME
22147006;;MERDRIGNAC;48.188000;-2.420500;145;1998-10-01;ETENDU
22168001;07117;PLOUMANAC'H;48.825833;-3.473167;55;1947-08-01;RADOME
22219003;;PLOUGUENAST;48.265833;-2.748333;235;1987-03-01;RADOME
22243001;;PLUSQUELLEC;48.404167;-3.522333;214;1973-01-01;ETENDU
22247002;;POMMERIT-JAUDY;48.742000;-3.251000;55;1985-07-01;RADOME
22261002;;QUINTENIC;48.519167;-2.420000;71;1984-03-01;RADOME
22266001;07119;ROSTRENEN;48.226667;-3.295333;236;1954-07-01;RADOME
22282001;;SAINT-CAST-LE-G;48.644500;-2.247000;35;1945-01-01;RADOME
22372001;07120;ST BRIEUC;48.534667;-2.852000;135;1985-11-01;RADOME
23008004;;AUBUSSON_SAPC;45.957833;2.187833;486;1991-01-01;ETENDU
23013001;;AUZANCES_SAPC;46.021500;2.489333;564;1947-01-01;ETENDU
23021001;;BENEVENT_SAPC;46.121000;1.628500;460;1860-01-01;ETENDU
23025001;;BONNAT;46.315333;1.916333;382;1955-04-01;ETENDU
23030004;;BOURGANEUF;45.942333;1.725833;513;1994-07-01;RADOME
23031002;;BOUSSAC_SAPC;46.343333;2.228333;380;1994-10-01;ETENDU
23046001;;CHAMBONCHARD;46.176000;2.553000;320;1921-01-01;ETENDU
23067001;;LA COURTINE;45.702667;2.263667;772;1919-01-01;RADOME
23069002;;CROCQ;45.867167;2.362167;710;1950-12-01;ETENDU
23075001;;DUN LE PALESTEL;46.317833;1.666833;365;1860-01-01;ETENDU
23079002;;FELLETIN;45.880167;2.186000;635;1995-07-01;RADOME
23089001;;GENOUILLAC;46.352333;1.985000;306;1955-04-01;RADOME
23090003;;GENTIOUX;45.785000;1.997333;794;1880-01-01;ETENDU
23113001;;LUPERSAT_SAPC;45.986500;2.393167;610;2004-01-01;ETENDU
23155001;;PONTARION_SAPC;45.995667;1.852833;455;1860-01-01;ETENDU
23176001;;LA SOUTERRAINE;46.242500;1.451833;370;1880-05-01;RADOME
23206002;07361;GUERET-ST LAURENT;46.175500;1.950333;365;2011-05-09;RADOME
23209001;;SAINT-LOUP_SAPC;46.140667;2.264500;440;2013-10-01;ETENDU
24035003;;BELVES;44.782667;0.956000;238;1988-04-01;RADOME
24037005;07530;BERGERAC;44.822833;0.524167;49;1988-03-01;RADOME
24064001;;BRANTOME;45.356833;0.645833;129;1965-08-01;ETENDU
24138004;;COULOUNIEIX;45.159500;0.676667;217;2004-10-01;RADOME
24152001;;DOMME;44.798333;1.219667;165;1969-12-01;ETENDU
24172001;;LES EYZIES DE TAYAC;44.935167;1.019500;73;1967-11-01;ETENDU
24226001;;LAMOTHE MONTRAV;44.837333;0.041167;9;1958-01-01;ETENDU
24280001;;MONPAZIER;44.684000;0.891667;199;1965-08-01;ETENDU
24291001;;MONTIGNAC;45.052167;1.147333;77;1956-04-01;ETENDU
24452001;;ST MARTIAL VIVEYROLS;45.357833;0.319333;166;1987-07-01;RADOME
24453001;;ST MARTIN  DE FRESSENGEAS;45.475500;0.848333;277;2006-02-24;RADOME
24516002;;SALIGNAC-EYVIGUES;44.936667;1.364667;276;2004-09-01;RADOME
24547002;;TERRASSON-LAVILLEDIEU;45.135500;1.292500;90;1960-01-01;ETENDU
24550003;;THENON;45.112667;1.038500;265;2006-02-23;RADOME
25021001;;ARC-ET-SENANS;47.031500;5.782000;235;1900-01-01;ETENDU
25047001;;BAUME-LES-DAMES;47.347167;6.350333;267;1943-01-01;ETENDU
25056001;07288;BESANCON;47.249000;5.988833;307;1884-12-01;RADOME
25087002;;BRANNE_SAPC;47.378000;6.472167;287;2008-01-15;ETENDU
25127001;;CHARQUEMONT;47.218833;6.815000;884;1943-12-01;ETENDU
25219002;;EPENOY;47.127167;6.366333;752;1992-12-01;RADOME
25222001;;ETALANS_SAPC;47.152500;6.210167;540;2020-02-20;ETENDU
25223002;;COULANS;47.023333;6.020500;468;2006-12-01;RADOME
25254001;;LES FOURGS;46.834000;6.436500;1140;1956-07-01;ETENDU
25285001;;GRAND'COMBE-CHATELEU_SAPC;47.019167;6.567167;769;2015-10-01;ETENDU
25320001;07391;LABERGEMENT;46.779667;6.279500;863;1943-01-01;ETENDU
25334001;;LEVIER_SAPC;46.949333;6.124167;713;1880-09-01;ETENDU
25356003;07837;MAICHE;47.243000;6.791000;825;1992-12-01;RADOME
25372001;;MEDIERE;47.456000;6.601333;302;2008-01-01;ETENDU
25413001;;MOUTHE;46.707000;6.209500;940;1880-06-01;ETENDU
25453001;;PIERREFONTAINE;47.216667;6.528833;695;1947-07-01;ETENDU
25462001;;PONTARLIER;46.904833;6.339667;831;1874-11-01;RADOME
25494001;;LA BOISSAUDE ROCHEJEAN;46.729000;6.322833;1222;2006-06-26;RADOME
25512001;;LE RUSSEY;47.162167;6.737500;891;1963-06-01;ETENDU
25529002;;SANCEY-LE-GRAND;47.301500;6.581667;490;2004-09-01;RADOME
26002003;;ALBON;45.252333;4.822333;153;2001-07-01;RADOME
26035001;;BEAUFORT-S-GERV;44.778000;5.139000;379;1947-01-01;ETENDU
26047001;;BELLEGARDE-EN-D;44.535167;5.454333;1017;1961-01-01;ETENDU
26050001;;BESIGNAN;44.320500;5.317000;556;1990-05-01;ETENDU
26056001;;BOURDEAUX;44.580167;5.142833;432;1961-01-01;ETENDU
26064001;07581;VALENCE-CHABEUI;44.914833;4.971833;163;1973-01-01;RADOME
26074001;;CHAPELLE-EN-VERCORS_SAPC;44.961500;5.422167;879;1994-04-01;ETENDU
26113003;;DIE;44.767667;5.343500;384;1990-01-01;ETENDU
26116002;;DONZERE;44.429167;4.725333;66;1992-03-01;ETENDU
26124001;;ETOILE;44.819000;4.889500;145;1987-01-01;ETENDU
26142001;;GLANDAGE_SAPC;44.674667;5.615167;1007;1967-10-01;ETENDU
26168001;07587;LUS L CROIX HTE;44.672833;5.710833;1059;1946-02-01;RADOME
26179001;;MERCUROL;45.058500;4.883500;153;1993-07-01;ETENDU
26182001;;MIRABEL-AUX-BAR;44.328667;5.100833;238;1980-10-01;ETENDU
26189001;;MONTAUBAN-S-OUV;44.276000;5.478333;689;1931-05-01;ETENDU
26198001;07577;MONTELIMAR;44.581167;4.733000;73;1920-06-23;RADOME
26211001;;MONTSEGUR-S-LAU;44.361500;4.860833;146;1950-05-01;ETENDU
26258001;;PUY-ST-MARTIN;44.618167;4.976833;211;1968-12-01;ETENDU
26273002;;ROCHEFORT-SAMSON_SAPC;44.990667;5.165167;368;1984-09-01;ETENDU
26281001;;ROMANS_SAPC;45.050167;4.998667;156;1990-06-01;ETENDU
26290002;;COL DE ROUSSET_SAPC;44.841667;5.421667;1400;2017-09-20;ETENDU
26292002;;ST-AUBAN;44.294833;5.409833;625;2002-05-01;RADOME
26295001;;ST-BARTHELEMY-V_SAPC;45.173833;4.902500;203;1956-01-01;ETENDU
26298001;;ST-CHRISTOPHE-L_SAPC;45.229333;5.071833;452;1989-12-01;ETENDU
26307001;;ST-JEAN-EN-ROYA;45.009167;5.292500;308;1925-01-01;ETENDU
26313001;;ST-MARCEL-LES-V-INRA;44.980167;4.931333;190;1962-01-01;ETENDU
26327001;;ST ROMAN-DIOIS;44.693833;5.428333;545;2003-04-29;RADOME
26328001;;ST SAUVEUR EN DIOIS;44.682667;5.157833;338;2013-10-04;ETENDU
26330001;;ST-SORLIN-EN-VA;45.271167;4.930333;237;1949-04-01;ETENDU
26340001;;SEDERON;44.202333;5.538833;804;1964-04-01;ETENDU
26361001;;VALDROME;44.505333;5.576667;786;1965-11-01;ETENDU
26377003;;VINSOBRES;44.337333;5.060167;346;1990-01-01;ETENDU
27016001;;LES ANDELYS;49.244667;1.412833;16;1925-01-01;ETENDU
27056003;;BERNAY;49.101333;0.559833;166;2004-04-01;RADOME
27100001;;BOULLEVILLE;49.361000;0.392833;122;2004-04-01;RADOME
27112001;;BRETEUIL;48.837500;0.907667;168;1956-07-01;ETENDU
27306001;;GUICHAINVILLE;48.977000;1.181667;147;1951-05-01;ETENDU
27347001;07038;EVREUX-HUEST;49.025000;1.221667;138;1968-01-01;RADOME
27375001;;LOUVIERS;49.204167;1.187167;25;1939-05-01;ETENDU
27422001;;MUIDS;49.224167;1.280500;31;2004-06-01;RADOME
28051002;;BONNEVAL;48.205167;1.417333;134;2015-02-01;ETENDU
28064002;;BU_SAPC;48.801500;1.493167;132;1996-10-01;ETENDU
28070001;07143;CHARTRES;48.460500;1.501167;155;1918-09-01;RADOME
28078001;;CHAPELLE-GUILLAUME_SAPC;48.112000;0.905833;197;2007-11-26;ETENDU
28190002;;GUILLONVILLE;48.092833;1.667500;133;2019-10-30;ETENDU
28195001;;HOUX;48.566167;1.620833;107;1950-04-01;ETENDU
28196003;;ILLIERS-COMBRAY_SAPC;48.283500;1.253167;170;2016-04-04;ETENDU
28198001;07140;CHATEAUDUN;48.061333;1.376333;126;1951-07-01;RADOME
28206001;;LAONS;48.706833;1.173167;171;2006-01-18;RADOME
28214003;;LA LOUPE_SAPC;48.481000;1.013333;200;1996-06-01;ETENDU
28239002;;MARVILLE_SAPC;48.652667;1.371833;153;1990-04-01;ETENDU
28280001;;NOGENT-LE-ROTROU;48.318667;0.797833;108;1866-01-01;ETENDU
28322001;;RUEIL;48.712167;0.959333;157;1947-01-01;ETENDU
28363001;;SAINVILLE;48.403833;1.903167;149;1946-01-01;ETENDU
28373002;;SENONCHES;48.558000;1.012167;239;1997-01-01;ETENDU
28380003;;SOURS_SAPC;48.406333;1.555167;147;2007-12-20;ETENDU
28386001;;THIMERT;48.544167;1.302833;225;1979-01-01;ETENDU
28406002;;EOLE_VIABON;48.213667;1.675167;140;2019-11-05;ETENDU
28407001;;VICHERES;48.257833;0.910167;235;2006-02-03;RADOME
29018001;;BRENNILIS;48.352667;-3.869000;220;1961-12-01;ETENDU
29021001;07107;BRIGNOGAN;48.676500;-4.331000;9;1982-03-01;ETENDU
29022001;07104;CAMARET;48.274833;-4.607167;44;1952-10-01;ETENDU
29041002;;CORAY CHAT EAU;48.066000;-3.825500;242;1990-09-01;ETENDU
29058003;07111;BEG_MEIL;47.854500;-3.976167;8;2012-03-01;ETENDU
29075001;07110;BREST-GUIPAVAS;48.450000;-4.383333;94;1945-01-01;RADOME
29082001;07116;BATZ;48.746333;-4.011833;32;1894-01-01;ETENDU
29113001;;LANMEUR;48.662500;-3.692667;57;1979-09-01;ETENDU
29120001;07109;LANVEOC;48.279333;-4.439333;81;1939-01-01;RADOME
29155005;07100;OUESSANT-STIFF;48.473333;-5.057000;64;1995-09-01;RADOME
29158001;07200;PTE DE PENMARCH;47.797500;-4.374833;3;1891-01-01;ETENDU
29163003;;PLEYBER-CHRIST SA;48.500000;-3.853500;147;1994-03-01;RADOME
29168001;07103;PTE DU RAZ;48.038833;-4.732000;67;1893-01-01;ETENDU
29170001;;PLOMELIN-INRA;47.946000;-4.128000;33;1978-04-01;ETENDU
29178001;07101;PLOUDALMEZEAU;48.548000;-4.664167;40;1998-02-01;RADOME
29179001;;PLOUDANIEL-INRA;48.503833;-4.327667;76;1979-01-01;ETENDU
29190001;07102;PLOUGONVELIN;48.330000;-4.771667;22;1921-01-01;ETENDU
29214001;;PLOVAN;47.915833;-4.377500;10;2012-05-16;RADOME
29216001;07201;QUIMPER;47.973000;-4.160667;82;1948-05-01;RADOME
29249002;;SAINT-GOAZEC;48.144667;-3.730833;260;2017-06-22;RADOME
29263002;;ST-SEGAL S A;48.225833;-4.090000;89;1985-09-01;RADOME
29264001;07106;LANDIVISIAU;48.532000;-4.151833;109;1966-05-01;RADOME
29276001;;SIBIRIL S A;48.660333;-4.077500;58;1988-04-01;RADOME
29277001;;SIZUN;48.391333;-4.020500;157;1982-01-01;ETENDU
29293001;;TREGUNC;47.841333;-3.868833;25;2003-12-01;RADOME
30003001;;AIGUES-MORTES;43.537167;4.207000;1;1872-01-01;RADOME
30009001;;ALZON;43.979000;3.444000;611;1928-01-01;ETENDU
30068001;;CARDET;44.021000;4.079667;109;1968-04-01;ETENDU
30076001;;CAVILLARGUES;44.113000;4.518667;131;1960-07-01;ETENDU
30087002;;COLOGNAC;44.021833;3.825000;589;1991-11-01;ETENDU
30101001;;DEAUX;44.071833;4.143667;185;1988-07-01;ETENDU
30129001;;GENERARGUES;44.073333;3.977667;139;1855-01-01;ETENDU
30132004;;LA GRAND COMBE;44.243000;4.010167;499;2002-05-01;RADOME
30133005;07651;L'ESPIGUETTE;43.487833;4.140500;1;2009-02-16;ETENDU
30164001;;MEJANNES-LE-CLAP;44.216333;4.331000;313;1991-08-01;RADOME
30176002;;MONTDARDIER;43.947000;3.580000;640;1990-05-01;RADOME
30189001;07645;NIMES-COURBESSAC;43.856833;4.406333;59;1921-01-01;RADOME
30202002;;PONT ST ESPRIT;44.248333;4.627333;79;1972-01-01;ETENDU
30209002;;PUJAUT;43.998500;4.759667;44;1988-06-01;RADOME
30224001;;LA ROUVIERE;43.931833;4.240500;79;1986-01-01;ETENDU
30243001;;ST CHRISTOL-LES-ALES;44.092167;4.080333;129;1949-01-01;ETENDU
30258001;07646;NIMES-GARONS;43.772833;4.412833;94;1964-01-01;RADOME
30263001;;ST HIPPOLYTE;43.961500;3.835167;237;1886-01-01;ETENDU
30269006;07562;ST JEAN DU GARD;44.110500;3.872000;196;1974-04-01;ETENDU
30297001;;ST SAUVEUR CAMPRIEU;44.119333;3.474500;1107;1963-06-01;RADOME
30305001;;SALINDRES;44.174500;4.152500;191;1881-01-01;ETENDU
30334003;;UZES;43.992500;4.401833;72;2002-01-01;ETENDU
30339001;07560;MONT AIGOUAL;44.121333;3.581500;1567;1895-12-01;RADOME
30349001;;VIC LE FESQ;43.870833;4.072167;45;1956-09-01;ETENDU
30350001;;LE VIGAN;43.990000;3.611500;222;1885-01-01;ETENDU
30352002;;VILLEVIEILLE;43.795167;4.090833;41;1970-01-01;RADOME
31011001;;ARBAS;42.996500;0.908833;405;1968-02-01;ETENDU
31035001;;AUZEVILLE-TOLOSANE-INRA;43.528833;1.503667;150;1994-08-01;ETENDU
31037002;;AVIGNONET-LAURAGAIS;43.343167;1.805667;193;2021-12-13;ETENDU
31042012;07724;LUCHON;42.801500;0.600167;618;1994-07-01;RADOME
31069001;07630;TOULOUSE-BLAGNAC;43.621000;1.378833;151;1947-01-01;RADOME
31070004;;BLAJAN;43.256500;0.643833;325;1999-03-01;ETENDU
31123400;;MAUPAS-NIVOSE;42.714500;0.549500;2417;2000-09-01;ETENDU
31147001;;CLARAC;43.106000;0.617333;401;1994-05-01;RADOME
31157001;07631;TOULOUSE-FRANCAZAL;43.540333;1.372667;164;1922-06-19;ETENDU
31299001;07628;MURET-LHERM;43.451500;1.262000;189;1996-09-01;RADOME
31374001;;MONTESQUIEU-LAURAGAIS;43.416000;1.628167;240;1997-01-01;ETENDU
31403002;;ONDES;43.778333;1.321333;109;1988-08-01;ETENDU
31406002;;PALAMINY;43.200000;1.050000;243;2002-05-01;RADOME
31451001;;REVEL;43.437500;2.018667;338;1819-10-01;ETENDU
31454001;;RIEUMES;43.415167;1.113000;261;1966-01-01;ETENDU
31478001;;ST-FELIX-LAURAGAIS;43.441667;1.881167;330;2006-02-21;RADOME
31540001;;SEGREVILLE;43.491833;1.742500;212;1961-01-01;ETENDU
31579001;;VILLARIES;43.743667;1.481667;135;1965-04-01;ETENDU
32013005;07622;AUCH;43.689000;0.601167;122;1985-01-01;RADOME
32035001;;BEAUCAIRE;43.842500;0.372833;120;1965-12-01;ETENDU
32107006;;CONDOM;43.974333;0.336000;173;2004-09-01;RADOME
32132001;;FLEURANCE;43.874167;0.672833;108;1970-03-01;ETENDU
32147001;;GIMONT;43.627667;0.884167;177;1872-01-01;ETENDU
32155001;;LE HOUGA;43.745833;-0.177500;141;2006-03-01;RADOME
32182001;;LAHAS;43.547500;0.887833;251;2003-10-01;RADOME
32190001;;LANNEPAX;43.792167;0.208167;175;1933-01-01;ETENDU
32245001;;MAUMUSSON;43.604667;-0.096667;164;1961-01-01;ETENDU
32248001;;MAUROUX;43.906833;0.824833;201;1989-02-01;RADOME
32256001;;MIRANDE;43.530167;0.400833;184;1872-01-01;ETENDU
32315001;;PEYRUSSE-GRANDE;43.616667;0.222000;254;1984-09-01;RADOME
32355001;;SADEILLAN;43.399333;0.348667;263;2003-01-01;ETENDU
32414001;;SARRAGACHIES;43.673167;-0.050833;110;1964-10-01;ETENDU
33042001;;BELIN-BELIET;44.493500;-0.791000;36;1881-01-01;ETENDU
33042005;;BELIN BELIET;44.448000;-0.882000;45;2006-03-01;RADOME
33063001;;BORDEAUX-PAULIN;44.849667;-0.588667;10;1861-08-01;ETENDU
33080001;;CADAUJAC-INRA;44.752833;-0.559333;20;1984-09-01;ETENDU
33095001;;CAPTIEUX;44.295167;-0.260500;96;1881-01-01;ETENDU
33116001;;CAZATS;44.463167;-0.186167;114;2002-05-01;RADOME
33122003;;PIERROTON-INRA;44.738333;-0.776667;60;1996-03-01;ETENDU
33195001;;GRIGNOLS;44.385667;-0.040333;146;1970-01-01;ETENDU
33214002;;LACANAU;45.001333;-1.138667;16;1881-01-01;ETENDU
33236002;07500;CAP-FERRET;44.630667;-1.252000;8;1898-05-01;ETENDU
33281001;07510;BORDEAUX-MERIGNAC;44.830667;-0.691333;47;1920-11-01;RADOME
33314005;;PAUILLAC;45.214333;-0.782833;26;1962-01-01;RADOME
33394002;;ST EMILION;44.917667;-0.188000;38;1995-01-01;RADOME
33415001;;ST GERVAIS;45.027167;-0.472667;42;1995-08-01;RADOME
33482001;;ST SULPICE DE POMMIERS;44.683833;-0.120000;82;2002-05-01;RADOME
33484001;;ST-SYMPHORIEN;44.426833;-0.489167;54;1948-07-01;ETENDU
33494001;;SALAUNES;44.935833;-0.828667;50;1962-01-01;ETENDU
33504001;;SAUTERNES;44.544333;-0.326833;65;1888-01-01;ETENDU
33529001;07502;CAZAUX;44.534667;-1.132000;23;1921-01-01;RADOME
33540001;;VENDAYS-MONTALIVE;45.378667;-1.119167;6;1968-01-01;RADOME
33550001;;VILLENAVE D'ORNON-INRA;44.790000;-0.576667;25;1924-01-01;ETENDU
34028003;;BEDARIEUX;43.639833;3.146000;373;1984-04-01;ETENDU
34032002;;BEZIERS-COURTADE;43.334333;3.155000;25;1969-08-01;ETENDU
34046005;;CAMBON-ET-SALVERGUES;43.622333;2.865333;955;1956-09-01;ETENDU
34055003;;CASTANET LE HAUT_SAPC;43.667500;2.976167;424;2008-02-28;ETENDU
34064003;;LE CAYLAR_SAPC;43.867167;3.308500;729;2007-05-10;ETENDU
34142001;;LODEVE;43.720333;3.302667;182;1928-01-01;ETENDU
34144001;;LUNAS;43.695833;3.170667;249;1947-10-01;ETENDU
34150001;;MARSEILLAN-INRA;43.328333;3.565333;1;1952-01-01;ETENDU
34151005;;MARSILLARGUES;43.633833;4.168000;4;1987-06-01;ETENDU
34154001;07643;MONTPELLIER-AEROPORT;43.576167;3.964667;1;1939-01-01;RADOME
34163001;;MONTARNAUD;43.635833;3.688167;148;1977-02-01;ETENDU
34174002;;MOULES-ET-BAUCELS;43.948000;3.752000;252;1985-01-01;ETENDU
34178001;;MURVIEL LES BEZIERS;43.476000;3.146000;140;1989-05-01;RADOME
34205001;;LES PLANS;43.786000;3.246167;846;1981-06-01;RADOME
34209002;07638;BEZIERS-VIAS;43.322000;3.352667;15;1982-03-01;RADOME
34217001;;PRADES LE LEZ;43.718333;3.866667;69;1979-03-01;RADOME
34237001;;ROUJAN-INRA;43.491667;3.321333;73;2009-12-12;ETENDU
34239002;;ST ANDRE DE SANGONIS;43.664167;3.507833;86;2004-09-01;RADOME
34269001;;ST JEAN DE MINERVOIS;43.385667;2.857667;258;2006-10-16;ETENDU
34274001;;ST MARTIN DE LONDRES;43.779500;3.729333;214;1928-01-01;RADOME
34277001;;ST MAURICE-NAVACELLE;43.841333;3.522333;584;1946-04-01;ETENDU
34301002;07641;SETE;43.397333;3.692167;75;1947-01-01;RADOME
34302001;;SIRAN;43.326500;2.675167;137;1949-07-01;ETENDU
34306001;;SOUMONT;43.707000;3.347500;252;1991-12-01;ETENDU
34311001;;PEZENAS-TOURBES;43.437667;3.400333;40;1993-04-01;RADOME
34317001;;LA VACQUERIE_SAPC;43.792000;3.457833;620;2007-07-02;ETENDU
34319001;;VAILHAN;43.546833;3.299333;122;1998-01-01;ETENDU
34337001;;VILLENEUVE-LES-MAG-INRA;43.538167;3.853833;20;1978-01-01;ETENDU
35005001;;ARBRISSEL;47.927333;-1.297333;75;2003-06-01;RADOME
35026001;;BLERUAIS;48.111500;-2.124167;84;1949-04-01;ETENDU
35044001;;BROUALAN;48.485667;-1.640833;99;1976-01-01;ETENDU
35057003;;LA-CHAPELLE-BOUEXIC;47.921500;-1.940833;42;2015-10-12;RADOME
35110003;;FEINS  SA;48.326833;-1.596833;87;2005-04-29;RADOME
35115001;;FOUGERES;48.337167;-1.212667;74;1966-01-01;ETENDU
35162003;;LOUVIGNE-DU-DESERT;48.479333;-1.129833;153;1986-03-01;RADOME
35178001;;MEZIERES-SUR-C.;48.308833;-1.439000;71;1950-06-01;ETENDU
35202001;;LA-NOE-BLANCHE;47.780167;-1.765000;89;1988-02-01;RADOME
35224001;;PLERGUER;48.524833;-1.843667;30;1989-07-01;ETENDU
35225001;;PLESDER;48.406833;-1.924833;56;1969-04-01;ETENDU
35228001;07125;DINARD;48.584833;-2.076333;65;1948-03-29;RADOME
35238003;;RENNES GALLET;48.126167;-1.643500;66;1886-04-01;ETENDU
35240001;;LE RHEU-INRA;48.112500;-1.781167;38;1983-04-01;ETENDU
35281001;07130;RENNES-ST JACQUES;48.068833;-1.734000;36;1944-10-01;RADOME
35294001;;SAINTE MARIE;47.691333;-2.004500;47;2007-01-01;ETENDU
35335001;;THOURIE;47.845167;-1.450500;67;1972-02-01;ETENDU
35347001;;VAL-D-IZE;48.167667;-1.302167;106;1972-05-01;ETENDU
36001001;;AIGURANDE;46.436167;1.822500;427;1910-01-01;ETENDU
36018001;;LE BLANC;46.637167;1.073167;117;1859-01-01;ETENDU
36034002;;CHABRIS;47.238000;1.706500;91;1983-10-01;ETENDU
36035002;;CHAILLAC_SAPC;46.456667;1.302167;126;2016-06-27;ETENDU
36063001;07354;CHATEAUROUX  DEOLS;46.869833;1.741000;158;1893-01-01;RADOME
36070001;;EGUZON;46.436333;1.581000;272;1909-01-01;ETENDU
36088005;;ISSOUDUN_SAPC;46.960000;2.028500;140;2017-10-13;ETENDU
36093002;;LEVROUX - TREG.;46.948667;1.663000;169;1993-02-19;ETENDU
36103001;;LUCAY-LE-MALE;47.130500;1.441833;119;1946-06-01;ETENDU
36113001;;MARTIZAY;46.804667;1.040167;80;1944-01-01;ETENDU
36127002;;MONTGIVRAY;46.610167;1.974000;204;1994-02-01;RADOME
36139001;;NEUILLAY;46.792000;1.445667;121;1985-11-01;ETENDU
36141001;;NEUVY-ST-SEP.;46.598333;1.798500;211;1909-01-01;ETENDU
36147001;;ORVILLE;47.135833;1.748500;144;1909-01-01;ETENDU
36155001;;PELLEVOISIN;46.974833;1.406167;161;1946-06-01;ETENDU
36169001;;PRUNIERS;46.788500;2.045000;164;1942-04-01;ETENDU
36173002;;ROSNAY;46.703000;1.249833;109;1992-05-01;RADOME
36186001;;ST-CHRISTOPHE;46.679333;2.124500;265;1946-06-01;ETENDU
36192001;;ST-GAULTIER;46.636500;1.430000;96;1912-09-01;ETENDU
36208001;;STE-SEVERE;46.488333;2.066667;302;1859-01-01;ETENDU
36219001;;TENDU_SAPC;46.661500;1.588333;155;1992-03-01;ETENDU
37003001;;AMBOISE;47.393833;0.976833;119;1884-05-01;ETENDU
37023002;;BEAUMONT_SAPC;47.177167;1.211667;126;1992-01-01;ETENDU
37107001;;FERRIERE-LARCON;46.987500;0.875000;116;1992-01-01;RADOME
37113001;;LE GRAND-PRES.;46.921167;0.796333;58;1924-01-01;ETENDU
37119001;;L'ILE-BOUCHARD;47.114167;0.425167;39;1947-09-01;ETENDU
37122001;;JOUE-LES-TOURS OB;47.325333;0.661000;93;1948-01-01;ETENDU
37128002;;LIGNIERES-DE-T.;47.293000;0.402833;32;1984-06-01;ETENDU
37170001;;NEUVY-LE-ROI;47.608000;0.596000;103;1924-01-01;ETENDU
37179001;07240;TOURS;47.444500;0.727333;108;1959-11-01;RADOME
37192001;;REIGNAC;47.219333;0.899000;90;1992-01-01;RADOME
37213003;;ST-CHRISTOPHE-SUR-NAIS;47.615500;0.464333;107;1992-01-01;RADOME
37216003;;SAINT EPAIN;47.157167;0.604833;112;2020-10-05;ETENDU
37240001;;SAUNAY;47.590333;0.931333;109;2001-09-01;RADOME
37241001;;SAVIGNE/LATHAN;47.441500;0.319667;88;1956-11-01;ETENDU
37242002;;SAVIGNY - VERON;47.227000;0.149333;33;1988-01-01;RADOME
37253001;;SUBLAINES;47.265000;0.993167;111;1992-01-01;ETENDU
38005402;;AIGLETON-NIVOSE;45.231000;6.038167;2240;2004-12-01;ETENDU
38021001;;AUTRANS;45.182000;5.552167;1069;1905-01-01;ETENDU
38034001;;BEAUREPAIRE;45.350333;5.036500;288;1892-01-01;ETENDU
38046002;;COL DE ROSSATIERE;45.455500;5.401000;568;2019-06-20;RADOME
38053003;;BOURGOIN;45.608000;5.309333;358;2003-08-01;RADOME
38095001;;CHATTE_SAPC;45.140167;5.306000;272;1987-05-01;ETENDU
38103002;;CHICHILIANNE_SAPC;44.810333;5.580333;984;2018-07-01;ETENDU
38133001;;COUBLEVIE;45.355333;5.596333;300;2004-09-01;RADOME
38153001;;ENGINS;45.176167;5.617167;877;1905-05-01;ETENDU
38162001;;FAVERGES;45.594667;5.528833;367;1905-01-01;ETENDU
38185012;;GRENOBLE-CEA-RADOME;45.211500;5.682833;213;2019-03-11;RADOME
38186001;;GRESSE;44.899833;5.565667;1220;1923-01-01;ETENDU
38187400;;LE GUA-NIVOSE;45.015000;5.588667;1646;1992-08-13;ETENDU
38191002;;ALPE-D'HUEZ;45.087833;6.085667;1860;1988-11-01;RADOME
38207001;;LAVALDENS;44.990667;5.883333;1070;1920-01-01;ETENDU
38269004;;LA MURE- RADOME;44.935000;5.786167;885;2003-11-01;RADOME
38275002;;SERRE-NERPOL_SAPC;45.284500;5.353000;632;2017-05-24;ETENDU
38285001;;ORNON;45.051667;5.987333;950;1905-01-01;ETENDU
38299001;;PELLAFOL-CHANEAUX;44.784167;5.906167;947;1920-01-01;ETENDU
38315002;;PONT-DE-BEAUVOISIN;45.528333;5.671333;284;1985-08-01;ETENDU
38336001;;REVENTIN;45.478667;4.810667;295;2004-01-01;RADOME
38342001;;ROISSARD;44.882167;5.639500;746;1907-12-01;ETENDU
38349001;;SABLONS;45.329667;4.768667;136;1958-11-01;ETENDU
38362001;;ST AUPRE_SAPC;45.392667;5.657333;450;2007-05-15;ETENDU
38366001;;ST-BAUDILLE;44.796000;5.796167;1040;1953-10-01;ETENDU
38375009;;ST CHRISTOPHE EN OISANS_SAPC;44.945833;6.188333;1564;2016-06-16;ETENDU
38375402;;LES ECRINS-NIVOSE;44.936833;6.346167;2970;1983-02-21;ETENDU
38384001;07486;GRENOBLE-ST GEOIRS;45.364000;5.313333;384;1940-10-01;RADOME
38395004;;SAINT-HILAIRE_SAPC;45.315000;5.884833;990;2017-11-14;ETENDU
38395403;;ST HILAIRE-NIVOSE;45.313833;5.863500;1756;1982-01-26;ETENDU
38442008;;ST-PIERRE-LES EGAUX;45.317333;5.803833;950;2005-06-23;RADOME
38446003;;ST-PIERRE-D'ENTREMONT;45.411000;5.843333;870;2002-03-01;ETENDU
38472403;;COL DE PORTE-NIVOSE;45.295000;5.765333;1325;1991-01-24;ETENDU
38501001;;TENCIN;45.300167;5.951333;233;1913-01-01;ETENDU
38504001;;THEYS;45.302333;5.995667;615;1905-01-01;ETENDU
38504002;;PIPAY_SAPC;45.265333;6.016000;1578;2009-07-30;ETENDU
38522004;;VALJOUFFREY_SAPC;44.869833;6.090167;1285;2022-08-23;ETENDU
38524001;;VARCES;45.100500;5.698000;250;1957-03-01;ETENDU
38527001;;VAUJANY;45.149167;6.047167;772;1907-01-01;ETENDU
38538002;07487;GRENOBLE - LVD;45.217167;5.848500;220;1999-06-01;ETENDU
38548001;;VILLARD-DE-LANS;45.078500;5.561000;1027;1959-01-01;RADOME
38567002;;CHAMROUSSE;45.128000;5.878333;1730;2002-09-01;RADOME
39013004;;ARBOIS_SAPC;46.896000;5.740167;313;1994-10-01;ETENDU
39097003;;CHAMPAGNOLE;46.756833;5.886000;537;1998-10-01;RADOME
39130002;;CHAUX-DES-PRES-INRA;46.509000;5.865000;854;2014-07-28;ETENDU
39156001;;COGNA;46.581500;5.764667;577;1998-06-01;ETENDU
39159002;;COLONNE;46.867667;5.572167;244;1987-01-01;ETENDU
39177001;;CRANCOT;46.690167;5.659000;509;1951-01-01;ETENDU
39198001;;DOLE;47.063667;5.496000;212;1949-04-01;ETENDU
39225002;;LE FIED_SAPC;46.768167;5.717333;522;2007-06-18;ETENDU
39235001;;FRAISANS;47.148667;5.768333;254;1891-01-01;ETENDU
39362001;07390;LONS LE SAUNIER;46.692833;5.517667;298;1950-01-01;RADOME
39413001;07850;LA PESSE;46.302833;5.843000;1133;1996-01-01;RADOME
39485002;;ST JULIEN - SA;46.385167;5.448000;361;1996-06-01;RADOME
39526003;07386;TAVAUX SA;47.043833;5.427333;195;1995-09-01;RADOME
40031001;;BEGAAR;43.833167;-0.836000;19;1970-02-01;ETENDU
40033001;;BELIS;44.063833;-0.453833;85;1970-04-01;ETENDU
40046001;07503;BISCARROSSE;44.431667;-1.247500;35;1964-07-01;RADOME
40065002;;CAPBRETON;43.627333;-1.453333;11;2002-06-01;RADOME
40087001;;CREON D'ARMAGNAC;43.993500;-0.045000;150;2004-09-01;RADOME
40088001;07603;DAX;43.689833;-1.070000;31;1958-01-01;RADOME
40134001;;LABOUHE DFCI;44.213333;-0.915333;72;1905-05-01;ETENDU
40164004;;CAPTIEUX-RETJONS;44.185000;-0.286167;131;2015-10-19;RADOME
40192001;07607;MONT-DE-MARSAN;43.909833;-0.500167;59;1944-12-01;RADOME
40218002;;PARLEBOSCQ;43.936500;0.044167;155;1965-04-01;ETENDU
40227001;;PISSOS;44.313667;-0.787333;56;1951-03-01;ETENDU
40243001;;RION-DES-LANDES;43.916333;-0.950833;77;2007-01-01;RADOME
40246003;;SABRES;44.153667;-0.859000;81;1979-01-01;RADOME
40272002;;ST M HINX STNA-INRA;43.570833;-1.299333;37;1984-10-01;ETENDU
40286001;;SAMADET;43.640667;-0.488833;134;1941-01-01;ETENDU
40304001;;SOORTS-HOSSEGOR;43.669833;-1.426333;10;1950-01-01;ETENDU
40321002;;URGONS;43.639667;-0.435167;146;1984-08-01;RADOME
41018001;;BLOIS - VILLE;47.572000;1.337500;69;1937-01-01;ETENDU
41050002;;CHEVERNY;47.505167;1.436333;99;1960-01-01;ETENDU
41053001;;CHOUE;47.969167;0.912833;163;2006-03-15;RADOME
41075003;;DROUE - MORACHE;48.016167;1.031667;206;1992-11-01;ETENDU
41080001;;FAVEROLLES;47.331833;1.165500;77;1993-02-01;ETENDU
41097001;07247;ROMORANTIN;47.319667;1.687500;83;1921-08-01;RADOME
41106001;;LAMOTTE-BEUVRON;47.610500;2.012000;117;1872-05-01;ETENDU
41152001;;MONTRIEUX;47.535833;1.730500;96;2006-03-07;RADOME
41173003;;OUZOUER;47.904000;1.521667;128;2016-08-16;RADOME
41269001;;VENDOME;47.826667;1.054333;115;1856-07-01;ETENDU
41281001;07245;BLOIS;47.678500;1.212333;119;1990-03-01;RADOME
41285001;;VILLENY;47.610667;1.743667;127;1927-01-01;ETENDU
42005001;07475;ST ETIENNE-BOUTHEON;45.545667;4.293833;395;1946-04-01;RADOME
42011001;;BALBIGNY;45.820167;4.192000;336;1943-05-01;ETENDU
42019005;;BOEN-SUR-LIGNON_SAPC;45.756167;4.001667;512;2017-11-01;ETENDU
42023004;;BOURG-ARGENTAL;45.298667;4.573500;514;1994-12-01;ETENDU
42034001;;COL DE CERVIERES;45.850667;3.766167;804;2020-02-26;ETENDU
42039003;;CHALMAZEL_RA;45.699000;3.844000;990;2001-08-01;RADOME
42040001;;COL DE LA LOGE_SAPC;45.743833;3.780333;1261;1997-02-01;ETENDU
42059001;;CHAZELLES-LYON;45.642333;4.396333;632;1956-09-01;ETENDU
42094003;;FEURS;45.738500;4.233833;347;1992-12-01;ETENDU
42098001;;FOURNEAUX;45.941167;4.269167;510;1875-01-01;ETENDU
42101001;;PILAT GRAIX;45.361167;4.559833;1164;2005-07-18;RADOME
42102002;;GRAMMOND_SAPC;45.564833;4.442833;803;1993-07-01;ETENDU
42145003;;MONTAGNY;46.015667;4.222333;460;1942-02-01;ETENDU
42152001;;NANDAX;46.097000;4.191333;374;1954-06-01;ETENDU
42159001;;NOIRETABLE;45.812667;3.760500;714;1858-01-01;ETENDU
42165003;;PANISSIERES;45.804333;4.333833;614;1858-06-01;ETENDU
42204002;;ST-BONNET-LE-CHATEAU_SAPC;45.436167;4.072000;822;1993-03-01;ETENDU
42207005;;ST-CHAMOND-P;45.491000;4.534167;394;2004-03-01;RADOME
42218011;;SAINT-ETIENNE;45.435333;4.368167;640;2002-06-01;RADOME
42224003;;COL REPUBLIQUE;45.352667;4.470833;1071;1992-12-01;ETENDU
42227001;;ST GEORGES EN C;45.701667;3.955500;496;1947-08-01;ETENDU
42239001;;ST-MAURICE-SUR-LOIRE;45.975000;4.006000;395;1928-01-01;ETENDU
42248002;;ST-JUST-EN-CHEV;45.908500;3.844167;612;1993-12-01;ETENDU
42253001;07477;ROANNE-RIORGES_AERO;46.055000;4.004500;337;2005-09-01;RADOME
42287001;;ST SAUVEUR EN R;45.268500;4.503667;783;1947-01-01;ETENDU
42299001;;SAVIGNEUX;45.624833;4.078667;370;1946-01-01;ETENDU
42306001;;TARENTAISE;45.369000;4.498500;1090;1863-01-01;ETENDU
42322001;;LA VALLA EN GIE;45.429167;4.511000;609;1951-02-01;ETENDU
43003001;;ALLEGRE;45.203000;3.718167;1035;1921-07-01;ETENDU
43014001;;AUTRAC;45.328667;3.131833;807;1984-01-01;ETENDU
43020002;;BAS-EN-BASSET;45.319833;4.128833;447;1979-06-01;ETENDU
43037001;;LE BOUCHET-ST-NICOLAS;44.885000;3.790500;1218;1949-06-01;ETENDU
43046001;;LE PUY-CHADRAC;45.054667;3.894500;714;1928-10-01;RADOME
43062001;07471;LE PUY-LOUDES;45.074500;3.764000;833;1983-11-01;RADOME
43067001;;CHAVANIAC-LAFAYETTE;45.159500;3.582000;715;1949-03-12;ETENDU
43071001;;CHOMELIX;45.257500;3.826833;886;1920-04-01;ETENDU
43091005;;LES ESTABLES_SAPC;44.900500;4.161000;1350;2009-09-29;ETENDU
43093001;;FELINES_SAPC;45.265833;3.742833;1014;1986-10-01;ETENDU
43095001;;FIX-ST-GENEYS;45.145833;3.665000;1102;1933-05-01;RADOME
43096001;;FONTANNES;45.300333;3.419667;435;1991-01-01;RADOME
43104001;;GREZES;44.920500;3.490500;1106;1931-06-14;ETENDU
43111002;;LANDOS-CHARBON;44.858000;3.843667;1148;1990-09-01;RADOME
43118001;;LAVOUTE-CHILHAC;45.155833;3.410000;491;1935-07-01;ETENDU
43130002;;MAZET-VOLAMONT;45.025000;4.239833;1130;1991-02-01;RADOME
43137003;;MONISTROL-SUR-LOIRE;45.314000;4.231167;777;1992-01-01;RADOME
43150001;;LE PERTUIS_SAPC;45.098833;4.061333;1020;1991-04-01;ETENDU
43162001;;RETOURNAC;45.203833;4.030167;535;1925-01-01;ETENDU
43212002;;ST-PAL-DE-CHALENCON;45.344833;3.966500;960;2014-12-02;ETENDU
43223001;;ST-ROMAIN-LACHALM;45.261500;4.327500;902;1980-02-01;ETENDU
43234005;;SAUGUES-SA;44.966167;3.539833;945;1992-10-01;RADOME
43241002;;SOLIGNAC-SUR-LO;44.973667;3.882667;832;1987-06-01;ETENDU
43244003;;TENCE;45.116500;4.277167;848;1921-06-01;ETENDU
43246001;;TIRANGES;45.268333;3.998667;603;1921-01-01;ETENDU
43268004;;YSSINGEAUX;45.135167;4.127500;873;1989-04-01;ETENDU
44015001;;BLAIN;47.472833;-1.771667;13;1878-06-01;ETENDU
44020001;07222;NANTES-BOUGUENAIS;47.150000;-1.608833;26;1945-05-01;RADOME
44067001;;GUEMENE-PENFAO;47.625333;-1.889833;33;1921-02-01;ETENDU
44072002;;HERBIGNAC;47.426500;-2.336500;22;1985-12-01;ETENDU
44103001;07217;ST NAZAIRE-MONTOIR;47.313833;-2.154500;3;1957-07-01;RADOME
44109012;;NANTES-VILLE;47.227667;-1.514000;17;1989-01-01;ETENDU
44110002;;NORT-SUR-ERDRE;47.425167;-1.513667;13;1878-05-01;RADOME
44113001;;NOZAY;47.572833;-1.611500;44;1863-01-01;ETENDU
44117002;;LE PALLET_SAPC;47.141500;-1.336833;35;1995-05-01;ETENDU
44120002;;PELLERIN(LE);47.210333;-1.828667;4;1989-03-01;ETENDU
44129001;;PONTCHATEAU;47.439667;-2.105167;34;1920-01-01;ETENDU
44131002;;PORNIC;47.122000;-2.092500;25;2013-02-01;ETENDU
44180005;;ST-MARS-LA-JAIL;47.526167;-1.185333;32;2001-01-01;ETENDU
44181001;;ST-MEME-LE-TENU;47.005667;-1.782500;4;2003-07-01;RADOME
44184001;07216;PTE DE CHEMOULIN;47.233667;-2.298500;14;1945-10-01;ETENDU
44188001;;ST-PHILBERT;47.029167;-1.652833;18;1877-11-01;ETENDU
45004001;;AMILLY;47.962167;2.728000;91;1944-01-01;RADOME
45055001;07249;ORLEANS;47.990667;1.778167;123;1937-10-11;RADOME
45069001;;CHAMBON-LA-F.;48.025167;2.260333;143;1896-01-01;ETENDU
45145001;;FERRIERES;48.113167;2.857833;107;1974-05-01;ETENDU
45187001;;LORRIS;47.881167;2.505167;125;1971-10-01;ETENDU
45193001;;MARCILLY-EN-V.;47.769167;2.021833;127;1948-10-01;ETENDU
45199003;;MELLEROY_SAPC;47.897333;2.952000;165;2017-06-15;ETENDU
45245001;;OUZOUER_SUR_TREZEE;47.672000;2.809833;150;1974-09-01;ETENDU
45253001;;PITHIVIERS-LE-V;48.166333;2.228333;120;1890-10-01;ETENDU
45270002;;ST-BENOIT/LOIRE;47.808000;2.305667;112;1974-12-01;ETENDU
45340002;;VILLEMURLIN;47.693500;2.366167;144;2005-04-20;RADOME
46005001;;ANGLARS;44.493333;1.208167;104;1989-04-01;ETENDU
46031001;;BLARS;44.572000;1.722000;281;1964-03-01;ETENDU
46038002;;BRETENOUX;44.912500;1.838333;136;1980-09-01;ETENDU
46071001;;COMIAC;44.965333;2.000000;562;2004-09-01;RADOME
46100001;;FAYCELLES;44.575333;2.004667;342;2004-09-01;RADOME
46127001;07535;GOURDON;44.745000;1.396667;260;1961-02-01;RADOME
46128002;;GRAMAT - PARC;44.760167;1.725500;312;1985-05-01;ETENDU
46143001;;LACAPELLE;44.730500;1.925167;396;1881-07-01;ETENDU
46160001;;LATRONQUIERE;44.800000;2.067833;658;1924-01-01;ETENDU
46173006;;LIMOGNE;44.398167;1.775000;303;2008-02-01;ETENDU
46176001;;LIVERNON;44.648500;1.847000;308;1881-07-01;ETENDU
46181001;;LUNEGARDE;44.678500;1.689500;383;2001-08-01;RADOME
46197002;;LE MONTAT;44.373667;1.435000;260;1985-06-01;RADOME
46201001;;MONTCUQ - ROUIL;44.312500;1.213833;193;1957-08-01;ETENDU
46287001;;SAINT-PAUL-FLAUGNAC;44.294000;1.454667;266;1986-06-01;ETENDU
46330002;;VAYRAC - BROUSS;44.969667;1.701333;152;1999-01-01;ETENDU
46332001;;VIAZAC - LABOUD;44.662500;2.073833;394;1947-05-01;ETENDU
47004001;;AIGUILLON;44.283167;0.334667;32;1962-02-01;ETENDU
47038002;;BOURRAN-INRA;44.331833;0.413167;55;1991-01-01;ETENDU
47086001;;DURAS;44.685667;0.206500;112;1962-10-01;ETENDU
47091001;07524;AGEN-LA GARENNE;44.172167;0.594667;58;1939-01-01;RADOME
47093002;;FARGUES-SUR-OURBISE;44.235833;0.186333;124;2013-11-04;RADOME
47123002;;LACAPELLE-BIRON;44.585667;0.900333;235;2004-10-01;RADOME
47138001;;LAROQUE-TIMBAUT;44.265667;0.775167;186;1897-06-01;ETENDU
47163001;;MAUVEZIN-SUR-GUPIE;44.561500;0.160333;95;2013-11-14;RADOME
47175001;;MONFLANQUIN;44.532000;0.734167;118;1961-01-01;ETENDU
47213001;;PRAYSSAS;44.310833;0.570667;196;1932-01-01;ETENDU
47221001;;REAUP;44.091667;0.193333;158;1950-01-01;ETENDU
47254001;;SAINT-MARTIN-CURTO;44.345333;0.042833;144;1960-06-01;ETENDU
47323004;;VILLENEUVE-SUR-LOT;44.397500;0.764000;59;2015-11-13;RADOME
47327001;;XAINTRAILLES;44.205000;0.261167;190;1952-01-01;ETENDU
48004001;;ALTIER;44.494000;3.852000;900;1998-09-01;ETENDU
48009001;;AUMONT AUBRAC;44.727167;3.279833;1018;1947-01-01;ETENDU
48020003;;BASSURELS;44.196500;3.630667;1042;1985-03-01;RADOME
48027002;;LE BLEYMARD BOURG;44.504667;3.737667;1199;1957-06-01;ETENDU
48027003;;LE BLEYMARD_SAPC;44.451500;3.748167;1418;1995-09-01;ETENDU
48032003;;LE BUISSON;44.633333;3.238167;1088;2005-09-13;RADOME
48043001;;CHATEAUNEUF-DE-RANDON;44.638167;3.679833;1247;1868-09-01;ETENDU
48051002;;LE COLLET-SAUVEPLANE;44.256000;3.925667;485;1990-01-01;ETENDU
48060001;;FAU DE PEYRE;44.763167;3.211833;1163;1986-07-01;ETENDU
48061002;;FLORAC;44.309000;3.596333;618;1858-01-01;ETENDU
48069001;;GATUZIERES_SAPC;44.195333;3.499000;965;2007-03-01;ETENDU
48070004;;GRANDRIEU;44.780667;3.633833;1163;1987-05-01;ETENDU
48094001;;LE MASSEGROS;44.295667;3.165667;890;1870-02-01;ETENDU
48095004;;MENDE-VILLE;44.516833;3.489833;710;1984-10-01;ETENDU
48095005;07554;MENDE;44.533667;3.454500;932;1984-12-01;RADOME
48103001;;MONTRODAT;44.540833;3.307500;745;1982-01-01;ETENDU
48108001;;LA PANOUSE_SAPC;44.728667;3.589333;1260;2007-08-23;ETENDU
48110001;;PAULHAC EN MARGERIDE_SAPC;44.947667;3.380000;1170;1949-03-01;ETENDU
48116001;;LE PONT-DE-MONTVERT;44.365667;3.738333;875;1870-01-01;ETENDU
48130002;;ROUSSES_SAPC;44.206833;3.584500;812;2006-10-25;ETENDU
48146001;;STE ENIMIE-SAUVETERRE;44.408667;3.438167;1018;1988-01-01;ETENDU
48148004;;ST-ETIENNE-VALLEE-FRANCAISE;44.165833;3.854167;518;2013-06-06;ETENDU
48156002;;ST GERMAIN DU TEIL;44.478000;3.160667;775;1949-03-01;ETENDU
48176002;;ST PIERRE-DES-TRIPIERS;44.246500;3.303500;929;1987-11-01;RADOME
48186001;;LA SALLE PRUNET;44.315667;3.650667;903;2007-07-18;ETENDU
48187003;;LES SALCES-FROMENTAL;44.532667;3.155167;1075;1989-01-01;ETENDU
48198001;;VILLEFORT;44.441667;3.928333;620;1863-09-01;ETENDU
49007011;;ANGERS VILLE;47.453500;-0.560500;35;2013-04-19;ETENDU
49008001;;ANGRIE;47.561667;-0.970333;65;2006-11-10;RADOME
49020001;07230;BEAUCOUZE;47.479000;-0.614333;50;1921-01-01;RADOME
49022001;;BEAULIEU-S-LAY;47.308000;-0.598333;78;1950-01-01;ETENDU
49027001;;BEGROLLES;47.152167;-0.937667;100;1946-01-01;ETENDU
49099003;07233;CHOLET;47.079500;-0.880500;134;1964-07-01;RADOME
49138001;;FONTAINE-GUERIN;47.493167;-0.167833;41;2004-01-01;RADOME
49176001;;LE LION D'ANG.;47.613500;-0.735167;52;1923-06-01;ETENDU
49188001;07228;MARCE;47.561833;-0.317000;53;1999-03-01;RADOME
49191001;;MARTIGNE-BRIAND;47.252500;-0.435833;73;2003-09-01;RADOME
49215002;;MONT-BELLAY-INRA;47.130000;-0.141500;58;1986-01-01;ETENDU
49248003;;POUANCE_SAPC;47.740000;-1.188333;96;2008-12-01;ETENDU
49276001;;ST FLORENT VIEI;47.355333;-1.011833;21;1937-09-01;ETENDU
49281001;;ST GEORGES GARD;47.150667;-0.739500;203;1946-01-01;ETENDU
49307001;;ST MATHURIN S L;47.425667;-0.319167;20;1934-12-01;ETENDU
49328001;;SAUMUR;47.252167;-0.074333;69;1910-01-01;ETENDU
49331003;;SEGRE_SAPC;47.679167;-0.873333;25;2010-07-20;ETENDU
49368001;;VERNANTES;47.406833;0.018833;41;1965-12-01;ETENDU
49373001;;VIHIERS;47.148000;-0.517167;124;1927-01-01;ETENDU
50020001;07020;PTE DE LA HAGUE;49.725167;-1.939833;6;1879-06-01;RADOME
50031001;07034;BARNEVILLE CART;49.373333;-1.805000;62;1986-09-01;ETENDU
50082001;;BRICQUEBEC;49.462000;-1.650333;38;1969-02-01;ETENDU
50111001;;CERISY LA SALLE;49.036333;-1.298167;134;1931-01-01;RADOME
50129001;07022;CHERBOURG-HOMET;49.660000;-1.633333;19;1966-10-01;ETENDU
50139001;;CONDE SUR VIRE_SAPC;49.050833;-1.040500;28;1968-02-01;ETENDU
50144001;;COULOUVRAY-BOISBENATRE;48.785333;-1.103667;268;1951-11-01;ETENDU
50147001;;COUTANCES;49.044000;-1.457833;80;1974-07-01;ETENDU
50174001;;EQUILLY;48.834500;-1.388667;101;1971-11-01;ETENDU
50196001;07019;GATTEVILLE LE P;49.697000;-1.265333;4;1944-12-01;ETENDU
50209001;07024;GONNEVILLE;49.652667;-1.463500;134;1956-01-01;RADOME
50215002;;GOUVILLE;49.107500;-1.606833;7;2003-11-01;RADOME
50218001;07133;GRANVILLE;48.834500;-1.613667;37;1945-07-01;ETENDU
50277001;;LONGUEVILLE;48.862000;-1.573000;5;2008-07-01;ETENDU
50298001;;MEAUTIS;49.259500;-1.299167;15;1977-08-01;ETENDU
50410003;;PONTORSON;48.585667;-1.505167;33;1997-03-01;RADOME
50456001;;ST-CLEMENT;48.673333;-0.886667;269;1970-06-01;ETENDU
50484002;;ST-HILAIRE-DU-H;48.563667;-1.096667;95;1991-09-01;ETENDU
50509002;;STE MARIE DU MO;49.404500;-1.168333;5;1997-03-01;RADOME
50514001;;CHAULIEU_SAPC;48.758833;-0.842500;284;2016-10-01;ETENDU
50531001;;ST OVIN;48.682500;-1.248667;155;1970-06-01;ETENDU
50562001;;ST VAAST LA HOUGUE;49.572667;-1.274667;17;1951-01-01;ETENDU
51015001;;ARGERS;49.064333;4.849833;152;2003-05-01;RADOME
51153001;;CHOUILLY;49.017833;3.981667;172;2004-04-01;RADOME
51210001;;DIZY;49.069333;3.966167;92;1988-06-01;ETENDU
51237002;;ESTERNAY;48.742000;3.579667;185;1994-05-01;RADOME
51242001;;FAGNIERES-INRA;48.939833;4.308500;105;1970-01-01;ETENDU
51262001;;FRIGNICOURT;48.701167;4.618000;113;1974-03-01;RADOME
51298001;;IGNY-COMBLIZY;49.016667;3.716833;225;1971-07-01;ETENDU
51388003;;MOURMELON-GRAND;49.107500;4.358500;115;2004-04-01;RADOME
51449002;07072;REIMS-PRUNAY;49.209833;4.155333;95;2012-04-23;RADOME
51545001;;SOMMESOUS;48.734167;4.207500;167;1864-01-01;ETENDU
51588001;;VALMY;49.085000;4.775833;161;1953-01-01;ETENDU
51590002;;VANAULT;48.849667;4.771833;140;1968-01-01;ETENDU
51595002;07166;VATRY-AERO;48.777167;4.164667;179;1996-06-01;RADOME
52023002;;AUBERIVE_SAPC;47.783000;5.053500;349;1991-10-01;ETENDU
52055001;;BLECOURT;48.384167;5.067000;348;2004-09-01;RADOME
52061002;;BOURDONS_SAPC;48.162333;5.349667;304;1991-12-01;ETENDU
52074002;;BREUVANNES_SAPC;48.094333;5.602167;323;2016-11-01;ETENDU
52084002;;BUSSON_SAPC;48.328833;5.360500;387;1992-03-01;ETENDU
52114001;;CHATEAUVILLAIN;48.047000;4.908000;227;1900-01-01;ETENDU
52123003;;CHEVILLON_SAPC;48.522833;5.113833;170;1992-03-01;ETENDU
52131002;;CIRFONTAINES_SAPC;48.456167;5.394667;379;1947-03-01;ETENDU
52145001;;COUBLANC;47.692000;5.460167;258;1984-01-01;ETENDU
52197003;;FAYL-BILLOT_SAPC;47.784333;5.615333;347;1991-09-01;ETENDU
52248002;;IS-EN-BASSIGNY;48.022167;5.455333;403;1991-12-01;RADOME
52269001;07283;LANGRES;47.843667;5.337500;466;1937-01-01;RADOME
52294001;;LOUVEMONT - MAN;48.560333;4.909833;146;1956-08-01;ETENDU
52332001;;VAL-DE-MEUSE;48.021500;5.586833;380;1957-01-01;ETENDU
52348003;;NEUILLY-L'EVEQUE_SAPC;47.918000;5.435833;353;2008-08-29;ETENDU
52443001;;SAILLY;48.433833;5.272833;270;1942-05-01;ETENDU
52447001;;ST-CIERGUES;47.882333;5.261500;359;1889-01-01;ETENDU
52448001;07169;ST-DIZIER;48.631333;4.903667;139;1921-01-01;RADOME
52450002;;SAINT-LOUP-SUR-AUJON_SAPC;47.895000;5.092167;310;2007-12-03;ETENDU
52469001;;CHAUMONT-SEMOUTIERS;48.092167;5.046000;294;2005-11-17;RADOME
52529001;;VILLEGUSIEN;47.738500;5.313833;296;1877-01-01;ETENDU
53077001;;COSSE-LE-VIVIEN;47.964333;-0.927000;95;1881-01-01;ETENDU
53078001;;COUDRAY;47.788167;-0.645333;55;1972-01-01;ETENDU
53083001;;COURCITE_SAPC;48.318667;-0.222333;172;2007-01-12;ETENDU
53096004;;ERNEE;48.295667;-0.962500;168;1996-02-01;RADOME
53097001;;EVRON;48.168000;-0.388000;107;1877-01-01;ETENDU
53110002;;GREZ-EN-BOUERE;47.891000;-0.542333;93;2002-05-01;RADOME
53116003;;LE HORPS;48.405667;-0.440833;268;2003-07-01;RADOME
53130008;07134;LAVAL-ETRONNIER;48.030667;-0.746500;100;2010-09-01;RADOME
53147001;;MAYENNE;48.311167;-0.640167;138;1881-01-01;ETENDU
53159002;;MONTOURTIER_SAPC;48.209833;-0.538667;107;2007-09-17;ETENDU
53185001;;PRE-EN-PAIL_SAPC;48.452000;-0.183167;277;1881-01-01;ETENDU
54040001;;BADONVILLER;48.498000;6.896167;336;1929-01-01;ETENDU
54113002;;CHAMPENOUX-ARBO-INRA;48.750667;6.340167;255;1992-10-01;ETENDU
54171001;;DONCOURT-LES-CONFLANS;49.153500;5.929333;235;2005-03-03;RADOME
54181001;;ERROUVILLE_SAPC;49.420000;5.909833;373;2014-04-25;ETENDU
54182001;;ESSEY-ET-MAIZE.;48.919333;5.809167;218;1949-01-01;ETENDU
54322001;;LONGUYON;49.431667;5.612833;257;1951-01-01;ETENDU
54405001;07181;NANCY-OCHEY;48.581000;5.959833;336;1963-01-01;RADOME
54407001;;OGNEVILLE;48.475000;6.067667;300;2005-04-01;ETENDU
54415001;;PAGNY-SUR-MOSELLE;48.983833;6.031167;179;1970-01-01;ETENDU
54481001;;ST MAURICE;48.514833;6.845667;305;2002-06-01;RADOME
54526001;07180;NANCY-ESSEY;48.687833;6.221500;212;1927-09-12;RADOME
54582001;;VILLETTE;49.482167;5.578167;345;1997-03-01;RADOME
55014001;;AUBREVILLE_SAPC;49.133833;5.093500;202;2008-04-04;ETENDU
55041001;;BEHONNE_SAPC;48.795667;5.188500;301;2007-09-21;ETENDU
55060002;;BONZEE_SAPC;49.092833;5.601167;235;2009-04-01;ETENDU
55067001;;BOVIOLLES;48.648667;5.415000;272;1972-09-01;ETENDU
55073001;;BRAS-SUR-MEUSE;49.208333;5.379167;194;1950-01-01;ETENDU
55108004;;CHAUMONT_SAPC;48.931333;5.264667;294;2007-05-28;ETENDU
55123002;;CONDE_SAPC;48.867167;5.182167;265;2009-03-30;ETENDU
55129001;;COUROUVRE;48.936833;5.358333;324;2018-05-15;RADOME
55179001;07171;ERNEVILLE AUX BOIS_SAPC;48.749500;5.403833;313;1932-01-01;ETENDU
55248001;;HOUDELAINCOURT;48.563000;5.505500;390;2011-04-29;RADOME
55328001;;MAXEY-SUR-VAISE;48.538167;5.669167;260;1874-01-01;ETENDU
55364001;;MOUZAY;49.460167;5.209167;166;2007-06-06;RADOME
55386002;;NONSARD;48.934167;5.763833;230;2002-08-01;RADOME
55443001;;ROUVRES-EN-WOEVRE;49.224667;5.687500;226;2011-01-20;RADOME
55484001;;SEPTSARGES;49.276333;5.155000;293;1990-09-01;RADOME
55517002;;TRIAUCOURT_SAPC;48.983167;5.065167;185;2008-04-04;ETENDU
55531001;;VASSINCOURT;48.808667;5.033167;187;2005-11-16;RADOME
56004001;;ARZAL;47.512667;-2.382667;26;1988-05-01;ETENDU
56007001;;AURAY;47.659167;-2.971000;26;1863-01-01;ETENDU
56009001;07207;BELLE ILE-LE TALUT;47.294333;-3.218333;34;1930-04-01;RADOME
56017003;;BIGNAN;47.884333;-2.728833;112;1997-04-01;RADOME
56031001;;CAMORS;47.823833;-2.991667;112;1963-09-01;ETENDU
56069001;07203;ILE DE GROIX;47.652333;-3.502333;41;1864-01-01;RADOME
56137001;;VANNES-MEUCON;47.722000;-2.727000;132;2012-11-24;ETENDU
56144001;;NAIZIN-INRA;48.005333;-2.816500;132;1990-01-01;ETENDU
56151001;;PONTIVY AERODROME;48.055667;-2.916667;125;2016-11-25;RADOME
56159001;;PLEUCADEUC;47.765500;-2.387167;65;1990-07-01;RADOME
56163001;;PLOERDUT;48.090667;-3.308833;179;1968-01-01;ETENDU
56165003;;PLOERMEL;47.950833;-2.397500;65;1934-01-01;RADOME
56166005;;PLOUAY-SA;47.916167;-3.344500;75;2007-10-23;ETENDU
56185001;07205;LORIENT-LANN BIHOUE;47.762833;-3.435667;45;1951-10-01;RADOME
56186003;;QUIBERON-AERODROME;47.479833;-3.099000;9;2021-06-08;RADOME
56240003;;SARZEAU SA;47.510667;-2.796000;35;1995-07-01;ETENDU
56243001;07210;VANNES-SENE;47.604500;-2.714167;3;1998-10-01;RADOME
57019001;;MALANCOURT;49.218833;6.057000;346;1948-10-01;ETENDU
57039001;;METZ-FRESCATY;49.069500;6.125333;192;1929-12-01;RADOME
57119001;;BUHL-LORRAINE;48.719500;7.079833;258;2012-01-05;RADOME
57168001;07186;PHALSBOURG_SAPC;48.766667;7.305833;377;1945-09-01;ETENDU
57251001;07093;AEROPORT METZ-NANCY-LORRAINE;48.979333;6.243167;260;1991-10-01;RADOME
57253001;;GONDREXANGE;48.688000;6.928333;266;1855-02-01;ETENDU
57322001;;HESTROFF_SAPC;49.255667;6.433333;221;2018-05-15;ETENDU
57357002;;KAPPELKINGER_SAPC;48.978833;6.903500;224;2007-05-09;ETENDU
57395001;;LESSE_SAPC;48.965833;6.508000;233;2009-03-30;ETENDU
57465001;;METZERVISSE;49.306333;6.283167;226;1943-01-01;ETENDU
57469002;;MITTERSHEIM;48.859167;6.934833;233;1885-01-01;ETENDU
57489001;;MOUTERHOUSE;48.984500;7.452500;265;1970-02-01;ETENDU
57509002;;NITTING_SAPC;48.667833;7.031000;266;2007-05-09;ETENDU
57524001;;OMMERAY_SAPC;48.724333;6.690833;219;2017-08-02;ETENDU
57550001;;PORCELETTE;49.159667;6.645667;250;1951-05-01;ETENDU
57557001;;PUTTELANGE-LES-THIONVILLE;49.481667;6.259000;190;1982-05-01;ETENDU
57587003;;RODALBE;48.909833;6.693167;258;2005-03-15;RADOME
57623003;;TURQUESTEIN-BLANCRUPT_SAPC;48.568167;7.090000;352;2009-03-30;ETENDU
57644001;;SEINGBOUSE;49.127667;6.831000;347;2003-08-01;RADOME
57730001;;BOULAY;49.165500;6.443000;214;2000-01-01;ETENDU
57732001;;VOLMUNSTER;49.124000;7.381833;358;2001-01-01;RADOME
57740001;;WALDWISSE;49.417000;6.505833;291;1948-10-01;ETENDU
58019001;;AVREE;46.820667;3.905000;302;2009-09-02;RADOME
58023001;;BAZOCHES_SAPC;47.359667;3.790333;351;2018-08-29;ETENDU
58061001;;CHASNAY;47.233833;3.168167;213;1979-02-01;ETENDU
58062001;07270;CHATEAU CHINON;47.070333;3.934333;598;1934-05-01;RADOME
58079004;;CLAMECY;47.441000;3.509000;215;2001-05-01;RADOME
58104001;;DORNES;46.720333;3.355500;220;1897-01-01;ETENDU
58106005;;DUN_SAPC;47.312833;4.046833;598;2007-11-15;ETENDU
58132001;;GUIPY_SAPC;47.212833;3.570333;274;2017-05-30;ETENDU
58145002;;LORMES_SAPC;47.267167;3.858333;485;1983-09-01;ETENDU
58148001;;LUTHENAY UXELOU;46.846500;3.288833;230;1932-01-01;ETENDU
58149001;;LUZY;46.807000;3.962500;300;1860-01-01;ETENDU
58160001;07260;NEVERS-MARZY;46.998333;3.112667;175;1946-01-01;RADOME
58177001;;MONTIGNY EN MORVAN_SAPC;47.161333;3.855667;285;1958-01-01;ETENDU
58199001;;ONLAY;46.981333;3.910833;375;1918-01-01;ETENDU
58218006;;PREMERY;47.170333;3.369500;260;1860-01-01;RADOME
58264001;;ST PIERRE LE MOUTIER;46.798833;3.113667;218;1872-01-01;ETENDU
58304005;;VARZY_SAPC;47.368333;3.386000;226;2015-07-02;ETENDU
59178001;;DOUAI;50.389667;3.067167;26;1960-12-01;ETENDU
59183001;07010;DUNKERQUE;51.055833;2.339500;11;1891-01-01;RADOME
59343001;07015;LILLE-LESQUIN;50.570000;3.097500;47;1944-12-01;RADOME
59392001;;MAUBEUGE;50.271667;3.966500;142;1959-01-01;ETENDU
59512001;;ROUBAIX;50.707500;3.180333;30;1961-01-01;ETENDU
59534001;;ST-HILAIRE-SUR-HELPE;50.145500;3.925167;185;2004-09-01;RADOME
59580003;;STEENVOORDE;50.829833;2.568833;42;2004-09-01;RADOME
59604001;;TROISVILLES;50.098000;3.463667;125;1952-01-01;ETENDU
59606004;;VALENCIENNES;50.328333;3.461000;50;1986-12-01;RADOME
59647001;;WATTEN;50.833833;2.213333;7;1960-05-01;ETENDU
60040001;;BAILLEUL-LE-SOC;49.423667;2.579667;131;2021-08-01;RADOME
60107001;;BREUIL-LE-VERT;49.364500;2.432833;57;1948-08-01;ETENDU
60260001;;FRESNOY-LA-RIVIERE;49.284833;2.918333;61;1932-10-01;ETENDU
60276001;;GODENVILLERS;49.586167;2.554167;92;1937-10-01;ETENDU
60322001;;JAMERICOURT;49.306500;1.879500;113;1990-02-01;RADOME
60363001;;LIERVILLE;49.193333;1.895000;105;1959-01-01;ETENDU
60382001;;MARGNY-LES-COMPIEGNE;49.431500;2.803667;92;1994-03-01;RADOME
60445001;;NAMPCEL;49.495000;3.087667;152;1970-11-01;ETENDU
60500004;;PLESSIS-BELLEVILLE;49.106000;2.737167;116;2003-05-01;RADOME
60518001;;PUITS-LA-VALLEE;49.581500;2.191167;168;2010-01-01;ETENDU
60555002;;ROUVROY-LES-MERLES;49.650333;2.370833;94;1989-04-01;RADOME
60566001;;SAINT-ARNOULT;49.623333;1.790833;206;2001-01-01;RADOME
60623001;;SONGEONS;49.545167;1.852333;113;1951-05-01;ETENDU
60639001;07055;BEAUVAIS-TILLE;49.446500;2.127167;89;1940-07-01;RADOME
60652001;;VALDAMPIERRE;49.303167;2.048333;171;1938-10-01;ETENDU
61001001;07139;ALENCON;48.445500;0.110167;143;1945-01-01;RADOME
61006005;;ARGENTAN;48.718167;0.011500;170;1994-07-01;RADOME
61124001;;COULONCHE  -LA-;48.644500;-0.459167;309;2001-03-01;ETENDU
61169003;;FLERS;48.750000;-0.589500;195;1997-01-01;RADOME
61179001;;FRESNAYE-AU-SAUVAGE_SAPC;48.722333;-0.263667;229;1997-06-01;ETENDU
61214002;;L AIGLE;48.758500;0.662333;232;1997-01-01;RADOME
61275001;;LE MERLERAULT_SAPC;48.711167;0.299000;236;2007-10-16;ETENDU
61328001;;PIN AU HARAS-INRA;48.725000;0.180833;202;1961-01-01;ETENDU
61345003;;REMALARD;48.434000;0.777667;158;2014-01-01;ETENDU
61369001;;ST BOMER-LES-FORGES;48.644667;-0.623500;226;1997-01-01;ETENDU
61377001;;ST CORNIER-DES-LANDES;48.723500;-0.729500;306;1951-01-01;ETENDU
61387001;;ST-FRAIMBAULT;48.504333;-0.702500;158;1994-07-01;ETENDU
61404001;;ST-HILAIRE;48.555833;0.529500;242;2003-10-30;RADOME
61426001;;BELLEME_SAPC;48.373833;0.550000;168;1997-06-01;ETENDU
61464001;;SEES;48.592000;0.172500;195;1951-12-01;ETENDU
61479001;;TANQUES;48.674833;-0.079667;171;1951-01-01;ETENDU
61483002;;BAGNOLES-DE-L_ORNE;48.541167;-0.414833;151;1990-05-01;ETENDU
61485002;;TICHEVILLE_SAPC;48.913000;0.245000;225;1997-04-01;ETENDU
61491002;;TOUROUVRE_SAPC;48.585000;0.667167;217;2007-10-02;ETENDU
62044001;;ATTIN;50.485333;1.765833;21;1960-09-01;ETENDU
62054001;07004;CAP-GRIS-NEZ;50.869667;1.582833;48;1990-01-01;RADOME
62076002;;BAINGHEN_SAPC;50.750833;1.906667;117;2008-09-03;ETENDU
62160001;07002;BOULOGNE-SEM;50.732500;1.599667;73;1947-01-01;RADOME
62298001;;CAMBRAI-EPINOY;50.225500;3.163833;76;1953-07-01;RADOME
62333001;;FIEFS;50.504667;2.326167;186;1952-08-01;ETENDU
62468001;;HUMIERES_SAPC;50.391500;2.223333;127;2008-09-03;ETENDU
62516002;;LILLERS;50.579500;2.496500;19;2002-04-01;RADOME
62548002;07009;CALAIS-MARCK;50.959833;1.956167;2;1991-04-01;RADOME
62613001;;NIELLES-LES-BLEQUIN_SAPC;50.672500;2.061833;145;2007-01-01;ETENDU
62685001;;RADINGHEM;50.549167;2.113667;115;1989-01-01;RADOME
62784001;;SAULTY;50.222167;2.522167;174;1987-10-01;RADOME
62826001;07003;LE-TOUQUET;50.514500;1.622833;5;1947-01-01;RADOME
62873001;;ARRAS;50.255833;2.870000;74;1986-01-01;RADOME
63003004;;AMBERT;45.516833;3.742667;555;1993-07-01;RADOME
63006002;;ANZAT-LE-LUGUET_SAPC;45.320167;3.016000;1270;2006-12-01;ETENDU
63038002;07866;SUPERBESSE;45.501667;2.865833;1287;1975-07-01;RADOME
63077001;;CHAMBON-SUR-LAC;45.572667;2.897000;897;1988-01-01;ETENDU
63089001;;CHAPPES;45.860667;3.214333;315;1895-01-01;ETENDU
63098001;;CHASTREIX;45.533000;2.774500;1385;1990-10-01;RADOME
63113001;07460;CLERMONT-FD;45.786833;3.149333;331;1922-03-01;RADOME
63125002;;COURPIERE;45.754000;3.572333;455;2003-06-01;RADOME
63129001;;CROS;45.472000;2.595000;790;1954-10-01;ETENDU
63132002;;CUNLHAT;45.634500;3.557667;700;1908-01-01;ETENDU
63157001;;FAYET-LE-CHATEA;45.696667;3.429167;585;1955-01-01;ETENDU
63163001;;GELLES;45.752667;2.809833;708;1972-05-01;ETENDU
63178001;;ISSOIRE;45.535333;3.262333;372;1997-04-01;RADOME
63189005;;LAQUEUILLE-INRA;45.636000;2.744667;1095;1991-12-01;ETENDU
63222001;;MEILHAUD;45.543667;3.164333;448;1944-08-01;ETENDU
63223001;;MENAT;46.105167;2.910000;410;1905-01-01;ETENDU
63236003;;LE MONT-DORE_SAPC;45.551833;2.812500;1220;1991-02-01;ETENDU
63263005;;FONTAINE-DU-BER_SAPC;45.799500;2.991667;971;1930-01-01;ETENDU
63281001;;PIONSAT;46.104833;2.687833;524;1874-01-01;ETENDU
63282001;;PLAUZAT_SAPC;45.632333;3.133667;503;1995-04-01;ETENDU
63295001;;RANDAN;46.012167;3.354167;394;1881-01-01;ETENDU
63298001;;LA RENAUDIE;45.737000;3.692500;805;1991-08-01;ETENDU
63319002;07459;ST-ANTHEME;45.575833;3.886167;1263;1991-04-01;RADOME
63320001;;SAINT AVIT_SAPC;45.872833;2.526500;724;2015-07-02;ETENDU
63345002;;ST-GENES-CHPLLE-INRA;45.723000;3.019333;893;1988-08-01;ETENDU
63353003;;ST-GERMAIN-L HE;45.461000;3.532667;1070;1997-06-01;RADOME
63354004;;ST-GERVAIS-D AU;46.032667;2.803833;705;1964-01-01;RADOME
63382001;;ST-PARDOUX;46.041167;3.008833;602;1918-01-01;ETENDU
63393001;;ST-REMY-SUR-DUR;45.890333;3.599167;665;1902-11-01;ETENDU
63399002;;ST-SULPICE;45.646500;2.598333;851;2001-10-01;RADOME
63417001;;SAYAT_SAPC;45.839667;3.045167;550;1993-03-01;ETENDU
63426001;;TAUVES;45.544667;2.597667;852;1914-01-01;ETENDU
63451001;;VERNINES;45.669000;2.888333;1045;2005-06-01;RADOME
64006001;;ACCOUS;42.945167;-0.610500;495;1948-01-01;ETENDU
64010002;;AICIRITS;43.335000;-1.020500;75;1993-08-01;RADOME
64024001;07602;BIARRITZ-PAYS-BASQUE;43.469333;-1.534333;71;1953-08-01;RADOME
64068001;;ASSON;43.127167;-0.272500;337;1969-01-01;ETENDU
64092002;;BANCA;43.128667;-1.372833;252;1934-01-01;ETENDU
64109001;;BENEJACQ;43.193167;-0.220333;255;1955-10-01;ETENDU
64123001;;BIDACHE;43.481167;-1.142167;45;1965-05-01;ETENDU
64155001;;BUSTINCE - ST JEAN;43.167333;-1.214500;179;2003-12-01;RADOME
64160001;;CAMBO-LES-BAINS;43.362000;-1.382500;69;1964-01-01;ETENDU
64189001;07600;SOCOA;43.394500;-1.686500;21;1920-09-01;RADOME
64233001;;GARLIN;43.551167;-0.272167;209;1964-01-01;ETENDU
64238001;;GER;43.238333;-0.083833;410;2006-10-02;RADOME
64301002;;LAGOR;43.390500;-0.643000;125;1946-01-01;ETENDU
64310001;;LANNE-EN-BARETOUS_SAPC;43.114667;-0.752667;350;2018-11-05;ETENDU
64316001;;LARRAU;43.020000;-0.960000;616;1955-10-01;ETENDU
64316003;;IRATY ORGAMBIDE;43.033500;-1.033833;1427;2001-08-01;RADOME
64320003;;LARUNS-HOURAT;42.983667;-0.428667;522;1963-08-01;ETENDU
64324002;;LASSEUBE_SAPC;43.204500;-0.485500;247;2014-11-01;ETENDU
64330400;;SOUM COUY-NIVOSE;42.961667;-0.721333;2142;1997-01-01;ETENDU
64331002;;LEMBEYE;43.451500;-0.109167;310;1924-08-01;ETENDU
64342001;;LICQ-ATHEREY;43.047833;-0.885667;288;1955-10-01;ETENDU
64379001;;MENDIVE_SAPC;43.126000;-1.135167;292;2009-03-10;ETENDU
64416001;;NAVARRENX;43.324333;-0.753500;135;1931-03-01;ETENDU
64422007;;OLORON;43.159500;-0.579500;295;2006-06-01;RADOME
64430003;;ORTHEZ;43.501333;-0.755000;96;1994-10-01;RADOME
64450001;;POMPS;43.490833;-0.543500;130;1931-03-01;ETENDU
64453002;;PONTACQ_SAPC;43.203333;-0.113833;343;2018-11-05;ETENDU
64480001;;ST-GLADIE;43.380167;-0.933667;73;1974-04-01;ETENDU
64537001;;TROIS-VILLES;43.133833;-0.876167;216;1952-11-01;ETENDU
64543001;;UREPEL_SAPC;43.068667;-1.415500;410;2007-01-01;ETENDU
64549001;07610;PAU-UZEIN;43.385000;-0.416333;183;1921-01-01;RADOME
65001001;;ADAST;42.972833;-0.072167;446;2016-11-05;RADOME
65018001;;ARBEOST_SAPC;42.988500;-0.278500;1015;2007-11-13;ETENDU
65055001;;AYROS ARBOUIX;42.998333;-0.068500;478;1981-08-01;ETENDU
65059022;;LA MONGIE_SAPC;42.908667;0.170333;1779;2016-11-22;ETENDU
65125001;;CAMPISTROUS;43.127167;0.366500;593;1989-01-01;RADOME
65129003;;CASTELNAU MAGNOAC;43.277833;0.517500;298;1986-10-01;RADOME
65138005;;CAUTERETS_SAPC;42.852500;-0.147000;1535;2009-09-01;ETENDU
65188005;;GAVARNIE_SAPC;42.733833;-0.010833;1410;2007-11-13;ETENDU
65258001;;LANNEMEZAN;43.113833;0.413167;638;1970-11-01;ETENDU
65278001;;LOMNE_SAPC;43.042833;0.298167;447;2007-01-01;ETENDU
65283001;;LOUDERVIELLE;42.796500;0.439667;1587;2004-10-01;RADOME
65295003;;LUZ SAINT SAUVEUR;42.858333;-0.001833;910;2006-01-01;ETENDU
65304001;;MAUBOURGUET;43.470833;0.043167;176;1882-08-01;ETENDU
65344001;07621;TARBES-LOURDES-PYRENEES;43.188000;0.000000;360;1944-08-01;RADOME
65388001;;ST LARY SOUL;42.813833;0.317667;826;1944-01-01;ETENDU
65413400;;LAC D'ARDIDEN-NIVOSE;42.848167;-0.066000;2445;1995-10-01;ETENDU
65447001;;TOURNAY;43.179000;0.243667;263;1963-04-01;ETENDU
65460002;;VIC EN BIGORRE;43.375500;0.045833;219;1987-08-01;RADOME
66024001;;LE BOULOU;42.528500;2.843500;77;1962-03-01;ETENDU
66029003;;CAIXAS;42.587333;2.679833;347;2010-07-01;ETENDU
66037001;;CANET-EN-ROUSSILLON;42.686833;2.983667;16;1956-11-01;ETENDU
66049001;;CERET;42.496333;2.747500;146;1916-01-01;ETENDU
66067402;;PUIGMAL-NIVOSE;42.384667;2.095333;2471;2009-09-11;ETENDU
66074002;;EUS;42.630167;2.446333;321;1994-04-01;ETENDU
66082004;07737;FORMIGUERES;42.616000;2.111333;1495;2005-07-01;RADOME
66088003;;ILLE-SUR-TET;42.659833;2.614167;158;2019-11-01;RADOME
66119002;;MOSSET;42.675667;2.320333;750;1924-01-01;ETENDU
66136001;07747;PERPIGNAN;42.737167;2.872833;42;1924-11-01;RADOME
66137003;;LE PERTHUS;42.473333;2.859500;295;1989-10-01;ETENDU
66148001;07749;CAP BEAR;42.516667;3.135000;82;1879-09-01;RADOME
66157001;;RAILLEU;42.586667;2.181000;1366;1958-08-01;ETENDU
66183001;;ST MARSAL;42.539167;2.622000;690;1947-04-01;ETENDU
66187006;;ST PAUL DE FENOUILLET;42.820500;2.485333;300;2005-07-01;RADOME
66194002;;SERRALONGUE;42.399833;2.557833;700;1985-08-01;RADOME
66202001;;TARGASONNE;42.504000;1.973333;1600;2017-03-06;RADOME
66204002;;TAURINYA;42.580333;2.410500;770;2012-06-21;ETENDU
66204400;;CANIGOU-NIVOSE;42.536667;2.465000;2160;1996-07-23;ETENDU
66206004;;LE TECH LA LLAU_SAPC;42.439833;2.512500;927;2006-10-25;ETENDU
66212001;;TORREILLES;42.755000;2.978333;7;1977-06-01;ETENDU
66230001;;VINCA;42.655500;2.547833;251;1973-01-01;ETENDU
66233001;;VIVES;42.536500;2.760833;261;1998-01-01;RADOME
67027001;;BELMONT;48.406333;7.267167;1065;2006-05-10;RADOME
67029001;;BERG;48.884333;7.151667;350;2003-06-01;RADOME
67067001;;BRUMATH;48.724667;7.709667;139;1935-01-01;ETENDU
67083002;;DAMBACH_SAPC;48.999333;7.661667;234;2017-11-23;ETENDU
67115001;;EBERSHEIM;48.308500;7.494500;164;1934-04-01;ETENDU
67122001;;WANGENBOURG_SAPC;48.642500;7.307000;460;1990-05-01;ETENDU
67124001;07190;STRASBOURG-ENTZHEIM;48.549500;7.640333;150;1923-04-01;RADOME
67126002;;ERCKARTSWILLER_SAPC;48.873000;7.364167;245;2015-10-21;ETENDU
67165006;;GRANDFONTAINE_SAPC;48.507667;7.148000;736;2016-08-11;ETENDU
67180001;;HAGUENAU;48.836333;7.801167;153;1920-05-01;ETENDU
67210002;;LE HOHWALD_SAPC;48.401500;7.330000;591;1990-05-01;ETENDU
67443001;;SCHEIBENHARD;48.964167;8.145500;144;2006-08-01;RADOME
67462004;;SELESTAT SA;48.272833;7.478333;173;1992-03-01;RADOME
67482001;;STRASBOURG - BOTANIQUE;48.581833;7.768833;139;1922-01-01;ETENDU
67498001;;UHRWILLER_SAPC;48.883667;7.581500;217;2003-08-10;ETENDU
67507003;;VILLE;48.343000;7.306167;264;1989-10-01;ETENDU
67516001;;WALTENHEIM-SUR-ZORN;48.743500;7.610000;252;2004-09-01;RADOME
68028001;;BERGHEIM-INRA;48.216333;7.345833;309;1987-03-01;ETENDU
68062001;;CARSPACH;47.632000;7.212833;332;2004-08-01;RADOME
68066001;;COLMAR-INRA;48.063333;7.330000;202;1972-04-01;ETENDU
68102001;07845;GEISHOUSE_SAPC;47.875333;7.056833;618;1964-01-01;ETENDU
68112005;;GUEBWILLER;47.903667;7.225833;273;1991-10-01;ETENDU
68165001;;KIFFIS;47.438000;7.355667;576;1897-01-01;ETENDU
68171002;;KRUTH_SAPC;47.944167;6.955000;512;1995-05-01;ETENDU
68188002;;LINTHAL_SAPC;47.941500;7.114000;488;1967-01-01;ETENDU
68190001;;LUCELLE_SAPC;47.438333;7.268167;690;1987-04-01;ETENDU
68205001;07197;COLMAR-MEYENHEIM;47.928667;7.407667;207;1956-09-01;RADOME
68224006;;MULHOUSE;47.750000;7.288833;245;1953-05-01;RADOME
68226005;;MUNSTER_SAPC;48.047167;7.117333;420;2001-11-01;ETENDU
68231001;;NEUF-BRISACH;48.026167;7.574667;195;1916-01-01;ETENDU
68247001;;ODEREN - VALLEE;47.909667;6.970333;457;1879-01-01;ETENDU
68247003;07843;MARKSTEIN CRETE;47.923000;7.031667;1184;1988-10-01;RADOME
68249002;;ORBEY LAC BLANC_SAPC;48.135833;7.103833;1080;1972-01-01;ETENDU
68287001;;ROUFFACH - CHS;47.954000;7.291667;208;1932-01-01;ETENDU
68297001;07299;BALE-MULHOUSE;47.614333;7.510000;263;1946-08-01;RADOME
68307001;07840;SEWEN - LAC ALFELD_SAPC;47.815500;6.873833;620;1888-11-01;ETENDU
68338001;;TROIS-EPIS_SAPC;48.101500;7.231000;656;1985-07-01;ETENDU
69008001;;ANCY_SAPC;45.843333;4.508167;626;2018-10-22;ETENDU
69028001;;BRINDAS;45.713333;4.693167;317;2004-11-01;RADOME
69029001;07480;LYON-BRON;45.721333;4.949167;202;1888-01-01;RADOME
69066003;;COURS LA VILLE_SAPC;46.097500;4.319000;553;2016-04-28;ETENDU
69114001;;LIERGUES_SAPC;45.976500;4.650333;290;1992-05-01;ETENDU
69123002;;LYON TETE D'OR;45.772833;4.855167;170;1961-01-01;ETENDU
69135001;;MONSOLS;46.219167;4.523167;525;1936-01-01;ETENDU
69141001;;MORNANT;45.614500;4.673833;343;1888-11-01;ETENDU
69174002;;LES SAUVAGES;45.935333;4.384167;831;1997-04-01;RADOME
69196001;;ST-DIDIER-BEAUJ;46.164167;4.566333;345;1959-03-01;ETENDU
69203001;;ST-GENIS-L'ARGENTIERE;45.700000;4.484500;512;1930-01-01;ETENDU
69204002;;ST-GENIS-LAVAL;45.694667;4.782333;290;1881-01-01;ETENDU
69206001;;ST-GEORGES-REN;46.058167;4.710833;190;2002-05-01;RADOME
69238001;;ST-SYMPHORIEN-C;45.638667;4.471333;610;1948-01-01;ETENDU
69239002;;SAINT-VERAND;45.916333;4.521167;390;2006-12-01;ETENDU
69258001;;VAUXRENARD;46.217000;4.628500;740;1901-01-01;RADOME
69264001;;VILLEFRANCHE;45.987167;4.737667;174;1930-01-01;ETENDU
69299001;07481;LYON-ST EXUPERY;45.726500;5.077833;235;1975-04-01;RADOME
70006001;;AILLEVILLERS;47.915000;6.338333;275;1950-02-01;ETENDU
70061002;;BELFAHY_SAPC;47.784167;6.730833;847;1992-04-01;ETENDU
70104001;;BUCEY-LES-GY;47.422667;5.842500;215;1946-01-01;ETENDU
70132001;;CHARGEY-LES-GRAY;47.507000;5.595500;244;1997-03-01;RADOME
70165001;;COMBEAUFONTAINE;47.708667;5.891500;252;1950-01-01;ETENDU
70168001;;CONFLANS-SUR-LA;47.817000;6.208667;230;1950-02-01;ETENDU
70229001;;FAYMONT_SAPC;47.606667;6.585833;398;2018-11-21;ETENDU
70245003;;FOUGEROLLES_SAPC;47.898500;6.388833;315;1991-03-01;ETENDU
70261001;;FROTEY_SAPC;47.639167;6.196500;360;1991-06-01;ETENDU
70283006;;BALLON DE SERVANCE;47.830833;6.791333;1213;2005-06-15;RADOME
70414001;07835;PLANCHER-LES-MI;47.772833;6.746333;529;1950-01-01;ETENDU
70447002;;RIOZ;47.438167;6.062000;275;2001-07-01;RADOME
70473001;07292;LUXEUIL;47.787000;6.363833;271;1918-01-01;RADOME
70545001;;VENISEY;47.836000;5.990167;243;2003-09-01;RADOME
70550001;;VESOUL VILLE;47.648833;6.163667;242;1845-01-01;ETENDU
70561002;;VILLERSEXEL SA;47.543667;6.433000;290;1992-11-01;RADOME
71014004;;AUTUN;46.972000;4.263167;303;1990-08-01;RADOME
71022003;;BAUDEMONT_SAPC;46.285667;4.281833;396;2014-11-14;ETENDU
71056003;;BRANGES_SAPC;46.645833;5.206667;197;2018-06-25;ETENDU
71081001;;CHALON-CHAMPFO;46.827000;4.825667;187;1991-09-01;RADOME
71105001;07385;MACON;46.294500;4.794333;219;1943-02-01;RADOME
71106001;;CHAROLLES;46.439500;4.281167;282;1949-05-01;ETENDU
71190001;;EPINAC;46.997667;4.496333;325;1903-01-01;ETENDU
71230002;;GUEUGNON;46.598167;4.020833;305;1979-07-01;ETENDU
71240001;;JALOGNY_SAPC;46.402833;4.651667;250;1977-01-01;ETENDU
71267001;;LUGNY;46.477333;4.823333;247;1937-01-01;ETENDU
71289001;;MATOUR_SAPC;46.304000;4.480333;415;1989-03-01;ETENDU
71320001;07382;MT-ST-VINCENT;46.627667;4.477000;601;1943-01-01;RADOME
71340002;;PALINGES;46.554667;4.228000;281;1885-01-01;ETENDU
71464001;;ST-MAURICE-LES-COUCHES_SAPC;46.881833;4.594833;300;1987-01-01;ETENDU
71482001;;ST-SYMPHORIEN DE MARMAGNE;46.852167;4.336167;349;1931-01-01;ETENDU
71491001;07379;ST YAN;46.408333;4.016500;242;1954-01-01;RADOME
71523001;;SIMARD;46.714167;5.181167;211;2014-02-01;ETENDU
71541001;;TORPES_SAPC;46.835833;5.335667;190;2018-12-06;ETENDU
71558001;;VARENNES-ST-SA;46.529333;5.255333;207;1975-01-01;RADOME
71589001;;VITRY/LOIRE;46.691667;3.721667;258;1983-04-01;ETENDU
72042001;;BOULOIRE;47.984333;0.491833;134;1921-02-01;ETENDU
72086001;;COMMERVEIL_SAPC;48.315333;0.353667;105;2008-01-17;ETENDU
72093001;;CORMES;48.179667;0.710167;122;1985-06-01;ETENDU
72137006;;LA FRESNAYE;48.433333;0.212167;146;1949-09-01;ETENDU
72172003;;LE LUART;48.076333;0.591000;112;2005-03-14;RADOME
72175002;;LUCHE-PRINGE;47.713000;0.088167;92;2003-07-08;RADOME
72181001;07235;LE MANS;47.945833;0.194167;51;1944-11-01;RADOME
72189001;;MAROLLES LES BR;48.243333;0.340833;65;1947-09-01;ETENDU
72237001;;PIRMIL;47.906833;-0.103333;66;1957-06-01;ETENDU
72255001;;ROUESSE-VASSE;48.139333;-0.225667;206;2003-08-01;RADOME
72264001;;SABLE SUR SARTH;47.840167;-0.302667;41;1949-10-01;ETENDU
72275003;;SAINT CORNEILLE;48.078833;0.345000;62;1999-04-01;ETENDU
72284001;;SAINT GERMAIN_SAPC;48.301333;0.093000;85;2003-01-01;ETENDU
72339001;;SOULIGNE FLACE;47.964667;0.017333;64;1949-09-01;ETENDU
72351002;;TENNIE;48.103500;-0.050000;103;1984-07-01;ETENDU
72357001;;THOREE LES PINS;47.659333;0.022500;78;1947-08-01;ETENDU
72361001;;TRESSON_SAPC;47.885333;0.559500;154;2008-12-05;ETENDU
72377002;;VILLAINES-SOUS-MALICORNE;47.745833;-0.108500;87;2001-02-01;ETENDU
73013002;;ALBIEZ-MONTROND;45.210667;6.336333;1633;2023-05-05;ETENDU
73026001;07496;AVRIEUX;45.214000;6.716833;1104;1948-01-01;ETENDU
73034002;;BEAUFORT-SUR-DORON;45.691000;6.568667;1036;1942-01-01;ETENDU
73040005;;BESSANS-CLIM;45.322833;7.002333;1731;1883-01-01;ETENDU
73040402;;BONNEVAL-NIVOSE;45.351667;7.051167;2741;1996-01-08;ETENDU
73051001;;MONT DU CHAT;45.660500;5.821500;1496;2005-08-01;RADOME
73052002;;BOURGET EN HUILE_SAPC;45.486667;6.207667;820;2015-11-16;ETENDU
73054001;07497;BOURG ST MAURICE;45.612667;6.763333;865;1945-04-01;RADOME
73055001;;BOZEL;45.440000;6.649500;865;1934-06-01;ETENDU
73064001;;CHALLES LES EAUX;45.565167;5.970333;298;1940-01-01;ETENDU
73071403;;BELLECOTE-NIVOSE;45.489000;6.771167;2992;1982-01-26;ETENDU
73093001;;GRANDE PAREI NIVOSE;45.614667;6.647500;2260;2011-09-27;ETENDU
73098003;;FECLAZ_SAPC;45.647167;5.983667;1328;1993-01-01;ETENDU
73107001;;ENTREMONT LE VIEUX_SAPC;45.444167;5.900500;1059;2013-01-31;ETENDU
73132003;;COL-DES-SAISIES;45.755000;6.535333;1614;1988-01-01;RADOME
73139001;;JARSY_SAPC;45.658833;6.176833;832;2016-06-16;ETENDU
73139401;;ALLANT-NIVOSE;45.663833;6.211833;1684;2008-10-01;ETENDU
73144001;;MONT CENIS;45.269333;6.899167;2032;1988-11-01;RADOME
73146001;;LESCHERAINES;45.715167;6.108333;591;1938-09-01;ETENDU
73150004;;LA PLAGNE_SAPC;45.500333;6.675167;2120;2017-04-11;ETENDU
73167001;;MONTGELLAFREY;45.393000;6.321000;1057;1934-05-01;ETENDU
73171002;;MONTMELIAN;45.493833;6.049167;264;2003-11-01;RADOME
73187006;;LA LECHERE_SAPC;45.549167;6.501000;1195;2007-05-01;ETENDU
73191001;;NOVALAISE;45.597333;5.776833;460;1956-07-01;ETENDU
73220001;;ST-ALBAN DES HURTIERES;45.477167;6.271333;610;1934-06-01;ETENDU
73229001;;ST-CHRISTOPHE LA-GROTTE;45.452833;5.777333;420;1984-11-01;ETENDU
73242003;;ST JEAN D'ARVES_SAPC;45.206833;6.278833;1573;2015-08-26;ETENDU
73244001;;ST-JEAN DE BELLEVILLE;45.427667;6.482833;1150;1934-06-01;ETENDU
73255003;;STE MARIE CUINES;45.343500;6.307167;460;1997-07-01;RADOME
73257001;;ST-MARTIN DE BELLEVILLE;45.368167;6.510500;1443;1952-09-01;ETENDU
73257003;;LA MASSE;45.297333;6.508333;2800;1989-01-01;RADOME
73257005;;VAL THORENS_SAPC;45.294000;6.581000;2277;2017-09-25;ETENDU
73258001;;ST-MARTIN DE LA PORTE;45.238833;6.446167;763;1934-05-01;ETENDU
73261001;;ST-MICHEL DE MAURIENNE;45.223667;6.490833;1345;1934-05-01;ETENDU
73261003;;ST MICHEL MAUR_SAPC;45.218167;6.464500;698;1997-04-01;ETENDU
73280001;;ST-SORLIN D'ARVES;45.224000;6.216333;1694;1932-01-01;ETENDU
73290002;;TERMIGNON-CLIM;45.274833;6.814500;1280;1934-05-01;ETENDU
73296005;;TIGNES_SAPC;45.467000;6.907167;2084;1989-12-01;ETENDU
73296406;;LE CHEVRIL-NIVOSE;45.499667;6.955333;2559;1996-11-07;ETENDU
73297003;;ALBERTVILLE;45.627833;6.327667;314;2020-07-01;RADOME
73303005;;UGINE;45.759167;6.421000;539;1997-01-01;ETENDU
73304005;;VAL D'ISERE JOS;45.444833;6.978167;1850;1988-01-01;RADOME
73306401;;LES ROCHILLES-NIVOSE;45.085000;6.469000;2444;1982-01-26;ETENDU
73322001;;LA NORMA_SAPC;45.190667;6.703500;1985;2017-08-22;ETENDU
73329001;07491;CHAMBERY-AIX;45.641333;5.878000;235;1973-07-01;RADOME
74014002;;LES CARROZ;46.024667;6.644000;1160;1996-05-01;ETENDU
74014004;;FLAINE_SAPC;46.002833;6.697167;1611;2015-07-02;ETENDU
74024001;;AYZE;46.079500;6.431333;449;1938-06-01;ETENDU
74035001;;BLOYE;45.821667;5.944667;375;1995-08-01;ETENDU
74042003;;BONNEVILLE;46.068500;6.399833;453;2003-05-01;RADOME
74045001;;LE BOUCHET_SAPC;45.799500;6.367667;925;2015-09-23;ETENDU
74051002;;CERCIER;46.031833;6.043500;492;1993-02-01;ETENDU
74056001;07469;CHAMONIX;45.929500;6.877500;1042;1876-01-01;RADOME
74056005;;LE TOUR;46.003833;6.948500;1500;1985-11-01;RADOME
74056006;;AIGUILLE DU MIDI;45.878500;6.887500;3845;1989-10-01;ETENDU
74056405;;AIGUILLES ROUGES-NIVOSE;45.986333;6.896833;2365;1983-01-25;ETENDU
74056421;;COUVERCLE-NIVOSE;45.909667;6.958833;2758;2023-05-24;ETENDU
74060001;;CHAPELLE SAINT-MAURICE_SAPC;45.782333;6.152167;970;2008-05-27;ETENDU
74063002;;CHATEL;46.255833;6.818833;1155;1958-01-01;ETENDU
74083002;;COMBLOUX;45.892833;6.626667;1183;1982-10-01;ETENDU
74087001;;CONTAMINE-SUR- ARVE;46.128667;6.340000;452;1944-07-01;ETENDU
74093001;;CRAN-GEVRIER;45.910833;6.107833;426;1976-02-01;ETENDU
74105002;;DOUVAINE SA;46.302333;6.318333;470;2009-03-18;ETENDU
74116004;;COL D'EVIRES;46.047167;6.264000;789;2020-01-17;ETENDU
74119002;;EVIAN;46.396500;6.566500;395;1990-01-01;ETENDU
74119003;;EVIAN SA;46.382333;6.582500;725;2002-05-01;RADOME
74133001;;GAILLARD;46.176000;6.210333;399;1987-08-01;ETENDU
74135001;;GIEZ;45.762667;6.255333;478;2008-06-01;ETENDU
74136005;;LE GRAND-BORNAND;45.973333;6.471833;1430;2005-07-20;RADOME
74137001;;GROISY_SAPC;46.012667;6.174500;670;1963-07-01;ETENDU
74143003;;HOUCHES (LES);45.892500;6.800667;1004;1934-01-01;ETENDU
74182001;07490;MEYTHET;45.928167;6.094000;455;1970-08-01;RADOME
74191003;;LE PLENEY;46.168333;6.692833;1515;1995-10-01;RADOME
74203001;;NOVEL;46.368833;6.790000;949;1935-01-01;ETENDU
74211002;;PERS JUSSY;46.098000;6.260500;747;1998-04-01;ETENDU
74221001;;REPOSOIR (LE);46.011333;6.535500;975;1952-12-01;ETENDU
74236002;;MONT ARBOIS;45.855333;6.669000;1833;1991-01-01;RADOME
74256001;;SALLANCHES;45.932000;6.651000;541;1870-01-01;ETENDU
74258002;;SAMOENS;46.086667;6.726667;785;1860-01-01;ETENDU
74266001;;SERVOZ;45.931167;6.767333;815;1992-06-01;ETENDU
74281001;;THONON-INRA;46.366667;6.455000;376;1935-09-01;ETENDU
74285002;;USINENS SA;46.013000;5.844500;452;2004-09-01;RADOME
74286001;;VACHERESSE;46.316333;6.669833;790;1983-01-01;ETENDU
74290002;;VALLORCINE_PLAN-DROIT;46.020500;6.919167;1326;1949-11-01;ETENDU
74290003;;VALLORCINE;46.020500;6.919167;1326;2022-10-07;ETENDU
75106001;;LUXEMBOURG;48.844667;2.333833;46;1955-03-01;ETENDU
75107005;;TOUR EIFFEL;48.858333;2.294500;330;1996-07-01;ETENDU
75110001;;LARIBOISIERE;48.882833;2.352000;55;1912-12-01;ETENDU
75114001;07156;PARIS-MONTSOURIS;48.821667;2.337833;75;1872-06-17;RADOME
75114007;;PARIS-MONTSOURIS-DOUBLE;48.821667;2.337833;75;2016-06-02;ETENDU
75116008;;LONGCHAMP;48.854833;2.233667;27;2007-03-01;RADOME
76116001;07037;ROUEN-BOOS;49.389500;1.178333;156;1968-03-01;RADOME
76130001;;BOUELLES;49.733167;1.502500;232;2005-03-01;RADOME
76171001;;LA CHAPELLE-SAINT-OUEN_SAPC;49.538167;1.439833;197;2014-04-01;ETENDU
76208001;;CUY SAINT FIACRE_SAPC;49.507833;1.716000;104;2014-04-10;ETENDU
76217001;07040;DIEPPE;49.932833;1.090000;40;1945-01-01;RADOME
76228001;;ECTOT LES BAONS;49.646667;0.816667;150;2005-03-01;RADOME
76255002;;EU;50.058000;1.421000;13;1988-01-01;ETENDU
76259001;07033;FECAMP;49.767167;0.369167;104;1946-01-01;ETENDU
76276001;;FORGES;49.602500;1.522500;160;1866-01-01;ETENDU
76302002;;GODERVILLE;49.642333;0.368167;118;1948-10-01;ETENDU
76378001;;JUMIEGES;49.435833;0.820833;30;1961-11-01;ETENDU
